stop_id,id,stop_name,location.coordinates,location.type
2006,7ec3d577-2f35-48a0-8293-e343f1c63e15,NAVYUG COLLEGE BRTS,"[72.80202, 21.201776]",Point
2007,7ec3d577-2f35-48a0-8293-e343f1c63e15,S.M.C. WEST ZONE OFFICE BRTS,"[72.799168, 21.20501]",Point
2008,7ec3d577-2f35-48a0-8293-e343f1c63e15,TADWADI BRTS,"[72.796065, 21.208267]",Point
2009,7ec3d577-2f35-48a0-8293-e343f1c63e15,PALANPUR PATIYA BRTS,"[72.792687, 21.212184]",Point
2010,7ec3d577-2f35-48a0-8293-e343f1c63e15,RAMNAGAR BRTS,"[72.791422, 21.216198]",Point
2011,7ec3d577-2f35-48a0-8293-e343f1c63e15,MORABHAGAL BRTS,"[72.789978, 21.22137]",Point
2012,7ec3d577-2f35-48a0-8293-e343f1c63e15,JAHANGIRPURA COMMUNITY HALL BRTS,"[72.790158, 21.228113]",Point
2013,7ec3d577-2f35-48a0-8293-e343f1c63e15,DR. SHYAMAPRASAD MUKHARJI BRIDGE BRTS,"[72.80311, 21.232457]",Point
2016,7ec3d577-2f35-48a0-8293-e343f1c63e15,SHREE SAHJANAND CHOWK / DABHOLI CHAR RASTA BRTS,"[72.822711, 21.230454]",Point
1021,7ec3d577-2f35-48a0-8293-e343f1c63e15,VANITA VISHRAM GROUND,"[72.813026, 21.183882]",Point
1022,7ec3d577-2f35-48a0-8293-e343f1c63e15,ATHWAGATE,"[72.811335, 21.185146]",Point
1101,7ec3d577-2f35-48a0-8293-e343f1c63e15,GIRLS POLYTECHNIC,"[72.810458, 21.186783]",Point
1102,7ec3d577-2f35-48a0-8293-e343f1c63e15,BAHUMALI,"[72.810941, 21.188442]",Point
1103,7ec3d577-2f35-48a0-8293-e343f1c63e15,NANPURA POST OFFICE,"[72.812977, 21.190205]",Point
1104,7ec3d577-2f35-48a0-8293-e343f1c63e15,DUTCH GARDEN,"[72.81357, 21.191259]",Point
1105,7ec3d577-2f35-48a0-8293-e343f1c63e15,MAKKAI POOL,"[72.815777, 21.192293]",Point
1106,7ec3d577-2f35-48a0-8293-e343f1c63e15,CHOWK BAZAR,"[72.81941, 21.19624]",Point
1107,7ec3d577-2f35-48a0-8293-e343f1c63e15,FURAJA CHOWK,"[72.819789, 21.198424]",Point
1108,7ec3d577-2f35-48a0-8293-e343f1c63e15,S.M.C. CENTRAL ZONE OFFICE,"[72.82066, 21.20004]",Point
1109,7ec3d577-2f35-48a0-8293-e343f1c63e15,I.P. MISSION SCHOOL,"[72.821354, 21.202005]",Point
1110,7ec3d577-2f35-48a0-8293-e343f1c63e15,VARIYALI BAZAR POLICE CHOWKI,"[72.823877, 21.205253]",Point
1111,7ec3d577-2f35-48a0-8293-e343f1c63e15,HODI BUNGALOW,"[72.8246, 21.207841]",Point
1112,7ec3d577-2f35-48a0-8293-e343f1c63e15,PUMPING CHAR RASTA,"[72.825768, 21.206237]",Point
1113,7ec3d577-2f35-48a0-8293-e343f1c63e15,SAIYEDPURA VEGETABLE MARKET,"[72.826918, 21.203766]",Point
1114,7ec3d577-2f35-48a0-8293-e343f1c63e15,KASKIWAD,"[72.828622, 21.201367]",Point
1115,7ec3d577-2f35-48a0-8293-e343f1c63e15,BHAJIWALI POL,"[72.829615, 21.199329]",Point
1116,7ec3d577-2f35-48a0-8293-e343f1c63e15,KOT SAFIL ROAD,"[72.829827, 21.196232]",Point
1118,7ec3d577-2f35-48a0-8293-e343f1c63e15,GOPI TALAV,"[72.829703, 21.191816]",Point
1117,7ec3d577-2f35-48a0-8293-e343f1c63e15,WADI FALIYA,"[72.830196, 21.193984]",Point
1119,7ec3d577-2f35-48a0-8293-e343f1c63e15,GOPI TALAV MARKET,"[72.827764, 21.190091]",Point
1120,7ec3d577-2f35-48a0-8293-e343f1c63e15,NAVSARI BAZAR,"[72.826622, 21.189167]",Point
1121,7ec3d577-2f35-48a0-8293-e343f1c63e15,JANTA HOSPITAL,"[72.827937, 21.186752]",Point
1122,7ec3d577-2f35-48a0-8293-e343f1c63e15,RUSTAMPURA SWIMMING POOL,"[72.829101, 21.185272]",Point
2083,7ec3d577-2f35-48a0-8293-e343f1c63e15,CENTRAL WARE HOUSE BRTS,"[72.8475, 21.2089]",Point
2084,7ec3d577-2f35-48a0-8293-e343f1c63e15,MINI HIRA BAZAAR / MAANGADH CHOWK BRTS,"[72.851881, 21.210514]",Point
2085,7ec3d577-2f35-48a0-8293-e343f1c63e15,BARODA PRISTAGE BRTS,"[72.856533, 21.212184]",Point
2086,7ec3d577-2f35-48a0-8293-e343f1c63e15,SHRIMAD VALLABHACHARYA CHOWK / HIRABAUG BRTS,"[72.860089, 21.21375]",Point
2201,7ec3d577-2f35-48a0-8293-e343f1c63e15,MAKBARA MASJID,"[72.823125, 21.211033]",Point
2202,7ec3d577-2f35-48a0-8293-e343f1c63e15,SANT JALARAM SOCIETY,"[72.822395, 21.212986]",Point
2203,7ec3d577-2f35-48a0-8293-e343f1c63e15,NANI BAHUCHARAJI TEMPLE,"[72.822467, 21.215076]",Point
2204,7ec3d577-2f35-48a0-8293-e343f1c63e15,PANDOL POLICE CHOWKI,"[72.821993, 21.218872]",Point
2205,7ec3d577-2f35-48a0-8293-e343f1c63e15,AKHAND ANAND COLLEGE,"[72.821532, 21.221579]",Point
2206,7ec3d577-2f35-48a0-8293-e343f1c63e15,VAADINATH CHOWK,"[72.821359, 21.22376]",Point
2207,7ec3d577-2f35-48a0-8293-e343f1c63e15,GOPAL NAGAR,"[72.821345, 21.226609]",Point
2208,7ec3d577-2f35-48a0-8293-e343f1c63e15,SHREE SWAMINARAYAN MANDIR,"[72.821586, 21.22977]",Point
2209,7ec3d577-2f35-48a0-8293-e343f1c63e15,DABHOLI CHAR RASTA,"[72.821555, 21.230931]",Point
2210,7ec3d577-2f35-48a0-8293-e343f1c63e15,PRAMUKH SWAMY CHOWK,"[72.82091, 21.234161]",Point
2211,7ec3d577-2f35-48a0-8293-e343f1c63e15,PRAMUKH YOG APARTMENT DABHOLI,"[72.803085, 21.23151]",Point
2212,7ec3d577-2f35-48a0-8293-e343f1c63e15,SILVER STONE HOMES DABHOLI,"[72.804963, 21.230396]",Point
2213,7ec3d577-2f35-48a0-8293-e343f1c63e15,SARJAN AVENUE APARTMENT,"[72.806311, 21.228604]",Point
2214,7ec3d577-2f35-48a0-8293-e343f1c63e15,KANTHARIYA HANUMAN CHOWK,"[72.806621, 21.225666]",Point
2215,7ec3d577-2f35-48a0-8293-e343f1c63e15,KANTHARIYA HANUMAN TEMPLE,"[72.809075, 21.225322]",Point
2217,7ec3d577-2f35-48a0-8293-e343f1c63e15,SINGANPORE S.T.P,"[72.81419, 21.221112]",Point
1123,7ec3d577-2f35-48a0-8293-e343f1c63e15,SANSKAR BHAVAN,"[72.81886, 21.182333]",Point
1124,7ec3d577-2f35-48a0-8293-e343f1c63e15,SHARDA SCHOOL,"[72.819394, 21.183992]",Point
1125,7ec3d577-2f35-48a0-8293-e343f1c63e15,KSHETRAPAL MANDIR,"[72.821974, 21.186005]",Point
1126,7ec3d577-2f35-48a0-8293-e343f1c63e15,TALAWDI SAGRAMPURA,"[72.824619, 21.187747]",Point
1127,7ec3d577-2f35-48a0-8293-e343f1c63e15,S.M.C. WATER DEPARTMENT,"[72.8244, 21.1888]",Point
1128,7ec3d577-2f35-48a0-8293-e343f1c63e15,KHWAJA DANA NEW ROAD,"[72.8217, 21.1903]",Point
1129,7ec3d577-2f35-48a0-8293-e343f1c63e15,HIJDAWAD,"[72.8194, 21.1905]",Point
1131,7ec3d577-2f35-48a0-8293-e343f1c63e15,MAN MANDIR APARTMENT,"[72.814859, 21.187712]",Point
1130,7ec3d577-2f35-48a0-8293-e343f1c63e15,KUVAWADI,"[72.817088, 21.189641]",Point
1132,7ec3d577-2f35-48a0-8293-e343f1c63e15,MAHAVIR HOSPITAL,"[72.814038, 21.184912]",Point
1133,7ec3d577-2f35-48a0-8293-e343f1c63e15,MACHHIWAD,"[72.817176, 21.191812]",Point
1134,7ec3d577-2f35-48a0-8293-e343f1c63e15,KEVAL CIRCLE,"[72.817702, 21.190268]",Point
1135,7ec3d577-2f35-48a0-8293-e343f1c63e15,KADARSHAH NI NAL,"[72.819073, 21.187846]",Point
1136,7ec3d577-2f35-48a0-8293-e343f1c63e15,SYMGA SCHOOL,"[72.819699, 21.185971]",Point
1137,7ec3d577-2f35-48a0-8293-e343f1c63e15,NEHRU BRIDGE,"[72.819002, 21.196677]",Point
1138,7ec3d577-2f35-48a0-8293-e343f1c63e15,BHAGATALAV,"[72.823413, 21.197498]",Point
1139,7ec3d577-2f35-48a0-8293-e343f1c63e15,LALGATE / CHOUTAPUL,"[72.825069, 21.198604]",Point
1140,7ec3d577-2f35-48a0-8293-e343f1c63e15,LIMDA CHOWK,"[72.827683, 21.198549]",Point
1141,7ec3d577-2f35-48a0-8293-e343f1c63e15,BHAGAL,"[72.831051, 21.197682]",Point
1142,7ec3d577-2f35-48a0-8293-e343f1c63e15,MAHIDHARPURA POST OFFICE,"[72.833931, 21.198153]",Point
1143,7ec3d577-2f35-48a0-8293-e343f1c63e15,MOTI TALKIES,"[72.836461, 21.198788]",Point
1144,7ec3d577-2f35-48a0-8293-e343f1c63e15,DELHI GATE,"[72.838629, 21.201756]",Point
2017,7ec3d577-2f35-48a0-8293-e343f1c63e15,BAPA SITARAM CHOWK BRTS,"[72.826499, 21.229829]",Point
2021,7ec3d577-2f35-48a0-8293-e343f1c63e15,PANDIT SHYAMJI KRISHNA VERMA BRIDGE BRTS,"[72.841381, 21.23289]",Point
2022,7ec3d577-2f35-48a0-8293-e343f1c63e15,GAJERA CIRCLE BRTS,"[72.83835, 21.228138]",Point
2023,7ec3d577-2f35-48a0-8293-e343f1c63e15,KATARGAM BRT,"[72.836415, 21.221533]",Point
2024,7ec3d577-2f35-48a0-8293-e343f1c63e15,FULPADA ROAD BRTS,"[72.841305, 21.227336]",Point
2025,7ec3d577-2f35-48a0-8293-e343f1c63e15,"SHREE SWAMINARAYAN MANDIR RUSTOM BAUG / ASHWINIKUMAR, FULPADA BRTS","[72.851517, 21.219746]",Point
2026,7ec3d577-2f35-48a0-8293-e343f1c63e15,VALLABHACHARYA ROAD BRTS,"[72.856877, 21.217525]",Point
2027,7ec3d577-2f35-48a0-8293-e343f1c63e15,HIRABAUG BRTS,"[72.862013, 21.216187]",Point
2028,7ec3d577-2f35-48a0-8293-e343f1c63e15,"D.G.V.C.L URJA SADAN, KAPODARA BRTS","[72.865668, 21.216939]",Point
2029,7ec3d577-2f35-48a0-8293-e343f1c63e15,DR. SHYAMAPRASAD MUKHARJI LAKE GARDEN BRTS,"[72.837923, 21.224536]",Point
2030,7ec3d577-2f35-48a0-8293-e343f1c63e15,LAMBE HANUMAN ROAD BRTS,"[72.865023, 21.210927]",Point
2031,7ec3d577-2f35-48a0-8293-e343f1c63e15,ANJANI BOOT BHAVANI ROAD BRTS,"[72.866443, 21.205663]",Point
2032,7ec3d577-2f35-48a0-8293-e343f1c63e15,SITANAGAR BRTS,"[72.867368, 21.201134]",Point
2033,7ec3d577-2f35-48a0-8293-e343f1c63e15,PUNA CANAL BRTS,"[72.869533, 21.193364]",Point
2034,7ec3d577-2f35-48a0-8293-e343f1c63e15,AMAZIA AMUSEMENT PARK BRTS,"[72.86656, 21.192617]",Point
2035,7ec3d577-2f35-48a0-8293-e343f1c63e15,PARVAT PATIYA JUNCTION BRTS,"[72.862451, 21.190039]",Point
2036,7ec3d577-2f35-48a0-8293-e343f1c63e15,MODEL TOWN JUNCTION BRTS,"[72.859053, 21.187798]",Point
1002,7ec3d577-2f35-48a0-8293-e343f1c63e15,GOLDEN POINT,"[72.842531, 21.199319]",Point
1003,7ec3d577-2f35-48a0-8293-e343f1c63e15,SAHARA DARWAJA,"[72.843773, 21.195304]",Point
1004,7ec3d577-2f35-48a0-8293-e343f1c63e15,TEXTILE MARKET,"[72.842311, 21.190972]",Point
1005,7ec3d577-2f35-48a0-8293-e343f1c63e15,KAMELA DARWAJA,"[72.839849, 21.188087]",Point
1006,7ec3d577-2f35-48a0-8293-e343f1c63e15,KINNARY CINEMA,"[72.83681, 21.185507]",Point
1007,7ec3d577-2f35-48a0-8293-e343f1c63e15,MAAN DARWAJA,"[72.833031, 21.183651]",Point
1008,7ec3d577-2f35-48a0-8293-e343f1c63e15,SUB JAIL,"[72.827537, 21.182054]",Point
1009,7ec3d577-2f35-48a0-8293-e343f1c63e15,GANDHI COLLEGE,"[72.815653, 21.181594]",Point
1010,7ec3d577-2f35-48a0-8293-e343f1c63e15,NEW CIVIL HOSPITAL,"[72.821412, 21.180524]",Point
1011,7ec3d577-2f35-48a0-8293-e343f1c63e15,MAJURA GATE,"[72.818134, 21.180563]",Point
1012,7ec3d577-2f35-48a0-8293-e343f1c63e15,SWAMINARAYAN CHOWK BRTS,"[72.803081, 21.194877]",Point
1013,7ec3d577-2f35-48a0-8293-e343f1c63e15,DHANMORA / ADAJAN PATIYA BRTS,"[72.806326, 21.197978]",Point
1015,7ec3d577-2f35-48a0-8293-e343f1c63e15,KATARGAM DARWAJA BRT,"[72.827728, 21.211373]",Point
1016,7ec3d577-2f35-48a0-8293-e343f1c63e15,GOTALAWADI,"[72.831348, 21.211243]",Point
1017,7ec3d577-2f35-48a0-8293-e343f1c63e15,KABIR MANDIR RAMPURA,"[72.833389, 21.209092]",Point
2743,7ec3d577-2f35-48a0-8293-e343f1c63e15,L.P SAVANI VIDHYABHAVAN,"[72.781917, 21.200858]",Point
2744,7ec3d577-2f35-48a0-8293-e343f1c63e15,EKTA NAGAR,"[72.782266, 21.204096]",Point
2745,7ec3d577-2f35-48a0-8293-e343f1c63e15,VIDHYAKUNJ,"[72.782575, 21.20777]",Point
2746,7ec3d577-2f35-48a0-8293-e343f1c63e15,HIDAYAT NAGAR POLICE STATION,"[72.782387, 21.210288]",Point
2747,7ec3d577-2f35-48a0-8293-e343f1c63e15,AMBEDKAR NAGAR,"[72.782419, 21.21443]",Point
2748,7ec3d577-2f35-48a0-8293-e343f1c63e15,VRUNDAVAN FLATS,"[72.78216, 21.215822]",Point
2749,7ec3d577-2f35-48a0-8293-e343f1c63e15,UGAT S.M.C. WATER TREATMENT PLANT,"[72.781077, 21.218783]",Point
4318,7ec3d577-2f35-48a0-8293-e343f1c63e15,BAPA SITARAM CHOWK YOGI NAGAR,"[72.894998, 21.218434]",Point
10,7ec3d577-2f35-48a0-8293-e343f1c63e15,RAILWAY STATION TERMINAL,"[72.840415, 21.204271]",Point
1001,7ec3d577-2f35-48a0-8293-e343f1c63e15,LINEAR BUS STOP,"[72.840139, 21.201664]",Point
2561,7ec3d577-2f35-48a0-8293-e343f1c63e15,UDHANA GIDC MAHATMA GANDHI ROAD,"[72.847917, 21.173595]",Point
2562,7ec3d577-2f35-48a0-8293-e343f1c63e15,L.N. PARK SOCIETY,"[72.847586, 21.174822]",Point
2563,7ec3d577-2f35-48a0-8293-e343f1c63e15,KHATODARA POLICE STATION,"[72.832016, 21.176181]",Point
2564,7ec3d577-2f35-48a0-8293-e343f1c63e15,KHATODARA WATER WORKS,"[72.829137, 21.174249]",Point
2565,7ec3d577-2f35-48a0-8293-e343f1c63e15,UDHANA RAILWAY STATION,"[72.850415, 21.171792]",Point
2601,7ec3d577-2f35-48a0-8293-e343f1c63e15,VANITA VISHRAM,"[72.809415, 21.18513]",Point
2602,7ec3d577-2f35-48a0-8293-e343f1c63e15,JAWAHARLAL NEHRU GARDEN,"[72.806663, 21.183899]",Point
2603,7ec3d577-2f35-48a0-8293-e343f1c63e15,POLICE COMMISSIONER OFFICE,"[72.803765, 21.182306]",Point
2604,7ec3d577-2f35-48a0-8293-e343f1c63e15,CITY CIVIC CENTRE,"[72.801423, 21.180388]",Point
2605,7ec3d577-2f35-48a0-8293-e343f1c63e15,SURAT DISTRICT COURT,"[72.798632, 21.178579]",Point
2606,7ec3d577-2f35-48a0-8293-e343f1c63e15,PARLE POINT,"[72.794619, 21.175052]",Point
2607,7ec3d577-2f35-48a0-8293-e343f1c63e15,JAANI FARSAAN,"[72.792611, 21.172604]",Point
2608,7ec3d577-2f35-48a0-8293-e343f1c63e15,SUSHRUT HOSPITAL,"[72.787579, 21.16948]",Point
2609,7ec3d577-2f35-48a0-8293-e343f1c63e15,ICCHANATH MAHADEV TEMPLE,"[72.786277, 21.168142]",Point
2610,7ec3d577-2f35-48a0-8293-e343f1c63e15,SHRUNGAR SOCIETY CITY LIGHT ROAD,"[72.793559, 21.172504]",Point
2611,7ec3d577-2f35-48a0-8293-e343f1c63e15,SCIENCE CENTRE CITY LIGHT ROAD,"[72.795201, 21.169522]",Point
2612,7ec3d577-2f35-48a0-8293-e343f1c63e15,PREM PRAKRUTI CHOWK CITY LIGHT ROAD,"[72.795571, 21.167232]",Point
2613,7ec3d577-2f35-48a0-8293-e343f1c63e15,SIDDHARTH COM. JUNCTION CITY LIGHT ROAD,"[72.796493, 21.163187]",Point
2615,7ec3d577-2f35-48a0-8293-e343f1c63e15,PARLE POINT GHOD DOD ROAD,"[72.7949, 21.174079]",Point
2616,7ec3d577-2f35-48a0-8293-e343f1c63e15,GUJARATI SCHOOL GHOD DOD ROAD,"[72.798466, 21.174414]",Point
2617,7ec3d577-2f35-48a0-8293-e343f1c63e15,TRIBHUVAN COMPLEX GHOD DOD ROAD,"[72.80153, 21.1748]",Point
2618,7ec3d577-2f35-48a0-8293-e343f1c63e15,RANGEELA PARK GHOD DOD ROAD,"[72.804849, 21.175054]",Point
2619,7ec3d577-2f35-48a0-8293-e343f1c63e15,ST.XAVIER'S HIGH SCHOOL GHOD DOD ROAD,"[72.810183, 21.175716]",Point
2620,7ec3d577-2f35-48a0-8293-e343f1c63e15,KARIMABAD SOCIETY GHOD DOD ROAD,"[72.812167, 21.175785]",Point
2639,7ec3d577-2f35-48a0-8293-e343f1c63e15,CHANDRAMANI SOCIETY UDHANA MAGDALLA ROAD,"[72.79893, 21.160549]",Point
2640,7ec3d577-2f35-48a0-8293-e343f1c63e15,RUPALI CANAL JUNCTION BHATAR ROAD,"[72.815427, 21.16984]",Point
2641,7ec3d577-2f35-48a0-8293-e343f1c63e15,UMA BHAVAN BHATAR ROAD,"[72.814428, 21.167728]",Point
2642,7ec3d577-2f35-48a0-8293-e343f1c63e15,ATOP NAGAR BHATAR ROAD,"[72.813381, 21.165445]",Point
2643,7ec3d577-2f35-48a0-8293-e343f1c63e15,I.G DESAI SCHOOL ALTHAN ROAD,"[72.811495, 21.161524]",Point
2644,7ec3d577-2f35-48a0-8293-e343f1c63e15,ALTHAN TENAMENT,"[72.810355, 21.159731]",Point
2645,7ec3d577-2f35-48a0-8293-e343f1c63e15,KAPADIA WADI ALTHAN ROAD,"[72.809171, 21.155462]",Point
2646,7ec3d577-2f35-48a0-8293-e343f1c63e15,SHAYONA PARK ALTHAN ROAD,"[72.808505, 21.153576]",Point
2647,7ec3d577-2f35-48a0-8293-e343f1c63e15,SOHAM CIRCLE,"[72.80696, 21.150943]",Point
2648,7ec3d577-2f35-48a0-8293-e343f1c63e15,MAJURA GATE FIRE STATION,"[72.818234, 21.175789]",Point
2649,7ec3d577-2f35-48a0-8293-e343f1c63e15,IOC COLONY SUBHASH NAGAR,"[72.817176, 21.173511]",Point
2650,7ec3d577-2f35-48a0-8293-e343f1c63e15,RAJ EMPIRE MULTIPLEX,"[72.816335, 21.171619]",Point
2680,7ec3d577-2f35-48a0-8293-e343f1c63e15,UMRA FOOD PARK,"[72.784447, 21.168657]",Point
2684,7ec3d577-2f35-48a0-8293-e343f1c63e15,GIRIDHARDWAR SOC ALTHAN CANAL ROAD,"[72.803536, 21.159404]",Point
2685,7ec3d577-2f35-48a0-8293-e343f1c63e15,INDRALOK BUNGLOW ALTHAN CANAL ROAD,"[72.803765, 21.156916]",Point
2686,7ec3d577-2f35-48a0-8293-e343f1c63e15,CHINAGATE ROAD ALTHAN CANAL ROAD,"[72.804042, 21.154347]",Point
2687,7ec3d577-2f35-48a0-8293-e343f1c63e15,ALTHAN COMMUNITY HALL,"[72.805435, 21.152594]",Point
2688,7ec3d577-2f35-48a0-8293-e343f1c63e15,V.T CHOKSI COLLEGE,"[72.796495, 21.17665]",Point
2689,7ec3d577-2f35-48a0-8293-e343f1c63e15,SARGAM SHOPPING CENTRE,"[72.790721, 21.171504]",Point
2690,7ec3d577-2f35-48a0-8293-e343f1c63e15,SAROJINI NAIDU GARDEN,"[72.782146, 21.171602]",Point
2691,7ec3d577-2f35-48a0-8293-e343f1c63e15,UMRA HEALTH CENTRE,"[72.779688, 21.171952]",Point
2692,7ec3d577-2f35-48a0-8293-e343f1c63e15,MIRA NAGAR SOCIETY,"[72.811235, 21.174575]",Point
2693,7ec3d577-2f35-48a0-8293-e343f1c63e15,JAMNA NAGAR SOCIETY,"[72.811462, 21.172345]",Point
2694,7ec3d577-2f35-48a0-8293-e343f1c63e15,TRIMURTI APARTMENT,"[72.811667, 21.170111]",Point
2417,7ec3d577-2f35-48a0-8293-e343f1c63e15,SILICON FLATS PARVAT,"[72.868176, 21.177574]",Point
2419,7ec3d577-2f35-48a0-8293-e343f1c63e15,SANJAY NAGAR LIMBAYAT,"[72.86235, 21.172015]",Point
2420,7ec3d577-2f35-48a0-8293-e343f1c63e15,SAHAJANAND SOCIETY LIMBAYAT,"[72.865272, 21.17479]",Point
2421,7ec3d577-2f35-48a0-8293-e343f1c63e15,GODADRA CANAL JUNCTION,"[72.869213, 21.175016]",Point
2422,7ec3d577-2f35-48a0-8293-e343f1c63e15,JANTA NAGAR ROAD,"[72.855789, 21.165286]",Point
2437,7ec3d577-2f35-48a0-8293-e343f1c63e15,MANGAL PANDEY HALL GODADARA,"[72.870658, 21.166307]",Point
2438,7ec3d577-2f35-48a0-8293-e343f1c63e15,JIGNESHNAGAR GODADARA,"[72.87066, 21.165409]",Point
2439,7ec3d577-2f35-48a0-8293-e343f1c63e15,DUMBHAL FIRE STATION,"[72.861545, 21.184353]",Point
2440,7ec3d577-2f35-48a0-8293-e343f1c63e15,NARAYAN INDUSTRIES LIMBAYAT,"[72.861271, 21.179808]",Point
2443,7ec3d577-2f35-48a0-8293-e343f1c63e15,S.M.C. SANKUL,"[72.8581, 21.1608]",Point
2441,7ec3d577-2f35-48a0-8293-e343f1c63e15,NAGESHWAR TEMPLE,"[72.861606, 21.175757]",Point
2444,7ec3d577-2f35-48a0-8293-e343f1c63e15,UMIYA NAGAR,"[72.8608, 21.1592]",Point
2445,7ec3d577-2f35-48a0-8293-e343f1c63e15,LAXMINAGAR SOCIETY,"[72.868506, 21.154829]",Point
2451,7ec3d577-2f35-48a0-8293-e343f1c63e15,HALPATI COLONY,"[72.839003, 21.18391]",Point
2452,7ec3d577-2f35-48a0-8293-e343f1c63e15,BHATHENA CANAL JUNCTION,"[72.841079, 21.181955]",Point
2453,7ec3d577-2f35-48a0-8293-e343f1c63e15,SIDDHI VINAYAK TEMPLE,"[72.843331, 21.179912]",Point
2454,7ec3d577-2f35-48a0-8293-e343f1c63e15,KHODIYARNAGAR,"[72.845776, 21.177614]",Point
2455,7ec3d577-2f35-48a0-8293-e343f1c63e15,SANJAY NAGAR CIRCLE,"[72.860762, 21.169985]",Point
2456,7ec3d577-2f35-48a0-8293-e343f1c63e15,SMC WARD OFFICE LIMBAYAT,"[72.857522, 21.165783]",Point
2501,7ec3d577-2f35-48a0-8293-e343f1c63e15,KHATODARA WADI,"[72.8252, 21.178195]",Point
2502,7ec3d577-2f35-48a0-8293-e343f1c63e15,KHATODARA GIDC,"[72.826497, 21.175301]",Point
2341,7ec3d577-2f35-48a0-8293-e343f1c63e15,AAI MATA ROAD,"[72.860429, 21.192419]",Point
2359,7ec3d577-2f35-48a0-8293-e343f1c63e15,BHAVANI CIRCLE,"[72.847382, 21.217968]",Point
2362,7ec3d577-2f35-48a0-8293-e343f1c63e15,RAMNAGAR SOCIETY,"[72.850922, 21.217917]",Point
2363,7ec3d577-2f35-48a0-8293-e343f1c63e15,SARDAR SMRUTI BHAVAN,"[72.851111, 21.21482]",Point
2364,7ec3d577-2f35-48a0-8293-e343f1c63e15,SARDAR CHOWK,"[72.85127, 21.211592]",Point
2401,7ec3d577-2f35-48a0-8293-e343f1c63e15,SAI DARSHAN MARKET,"[72.843074, 21.187432]",Point
2402,7ec3d577-2f35-48a0-8293-e343f1c63e15,PANCHSHEEL NAGAR ANJANA,"[72.846082, 21.186405]",Point
2403,7ec3d577-2f35-48a0-8293-e343f1c63e15,NAGAR PRATHMIK SCHOOL ANJANA,"[72.85014, 21.185065]",Point
2404,7ec3d577-2f35-48a0-8293-e343f1c63e15,HARI DARSHAN SOCIETY GODADARA,"[72.870825, 21.167428]",Point
2405,7ec3d577-2f35-48a0-8293-e343f1c63e15,ANJANA HEALTH CENTRE,"[72.853155, 21.183974]",Point
2406,7ec3d577-2f35-48a0-8293-e343f1c63e15,AZAD CHOWK,"[72.854909, 21.181728]",Point
2407,7ec3d577-2f35-48a0-8293-e343f1c63e15,MITHIKHADI WARD OFFICE,"[72.855622, 21.179035]",Point
2408,7ec3d577-2f35-48a0-8293-e343f1c63e15,LIMBAYAT HEALTH CENTRE,"[72.856507, 21.176004]",Point
2409,7ec3d577-2f35-48a0-8293-e343f1c63e15,SHIVAJI NAGAR,"[72.858787, 21.170674]",Point
2410,7ec3d577-2f35-48a0-8293-e343f1c63e15,NILGIRI CIRCLE,"[72.859183, 21.168413]",Point
2411,7ec3d577-2f35-48a0-8293-e343f1c63e15,SHREE NATHJI SOCIETY GODADARA,"[72.863587, 21.167398]",Point
2412,7ec3d577-2f35-48a0-8293-e343f1c63e15,RAM NAGAR GODADARA,"[72.868969, 21.167485]",Point
2413,7ec3d577-2f35-48a0-8293-e343f1c63e15,MODEL TOWN DUMBHAL,"[72.86086, 21.187929]",Point
2414,7ec3d577-2f35-48a0-8293-e343f1c63e15,NEMINATH NAGAR DUMBHAL,"[72.862831, 21.186053]",Point
2415,7ec3d577-2f35-48a0-8293-e343f1c63e15,VIDHATA TOWNSHIP PARVAT,"[72.864251, 21.183967]",Point
2416,7ec3d577-2f35-48a0-8293-e343f1c63e15,PARVAT GAM,"[72.866743, 21.180797]",Point
2218,7ec3d577-2f35-48a0-8293-e343f1c63e15,TRILOK SOCIETY,"[72.818283, 21.220734]",Point
2219,7ec3d577-2f35-48a0-8293-e343f1c63e15,KATARGAM POLICE STATION,"[72.83033, 21.216651]",Point
2220,7ec3d577-2f35-48a0-8293-e343f1c63e15,BAL ASHRAM,"[72.832021, 21.218826]",Point
2221,7ec3d577-2f35-48a0-8293-e343f1c63e15,KATARGAM FIRE STATION,"[72.832574, 21.222155]",Point
2222,7ec3d577-2f35-48a0-8293-e343f1c63e15,KATARGAM,"[72.832464, 21.224693]",Point
2223,7ec3d577-2f35-48a0-8293-e343f1c63e15,KANTARESHWAR MAHADEV,"[72.831011, 21.226767]",Point
2224,7ec3d577-2f35-48a0-8293-e343f1c63e15,HARE KRISHNA CIRCLE,"[72.828566, 21.232727]",Point
2225,7ec3d577-2f35-48a0-8293-e343f1c63e15,RADADYA VIDHYALAYA,"[72.827086, 21.235002]",Point
2226,7ec3d577-2f35-48a0-8293-e343f1c63e15,LALITA CIRCLE,"[72.829989, 21.229887]",Point
2227,7ec3d577-2f35-48a0-8293-e343f1c63e15,RAJ LAXMI HEIGHTS,"[72.811738, 21.225072]",Point
2228,7ec3d577-2f35-48a0-8293-e343f1c63e15,SMC HALL SINGANPORE,"[72.815362, 21.225362]",Point
2229,7ec3d577-2f35-48a0-8293-e343f1c63e15,SINGANPORE VEGETABLE MARKET,"[72.81809, 21.225438]",Point
2230,7ec3d577-2f35-48a0-8293-e343f1c63e15,SINGANPORE CIRCLE,"[72.821141, 21.224784]",Point
2231,7ec3d577-2f35-48a0-8293-e343f1c63e15,AASHIRWAD DOCTOR HOUSE,"[72.823451, 21.223874]",Point
2232,7ec3d577-2f35-48a0-8293-e343f1c63e15,J K P NAGAR SOCIETY,"[72.82688, 21.22379]",Point
2233,7ec3d577-2f35-48a0-8293-e343f1c63e15,SNEH NAGAR SOCIETY,"[72.829446, 21.224273]",Point
2235,7ec3d577-2f35-48a0-8293-e343f1c63e15,GAYATRI MANDIR,"[72.787298, 21.222383]",Point
2236,7ec3d577-2f35-48a0-8293-e343f1c63e15,KIRAN HOSPITAL,"[72.837629, 21.219492]",Point
2237,7ec3d577-2f35-48a0-8293-e343f1c63e15,GAYATRI MANDIR DABHOLI CLUSTER,"[72.820499, 21.230715]",Point
2238,7ec3d577-2f35-48a0-8293-e343f1c63e15,KAILASH NAGAR DABHOLI,"[72.818324, 21.231486]",Point
2239,7ec3d577-2f35-48a0-8293-e343f1c63e15,SHREE KUNJ SOCIETY,"[72.818582, 21.234609]",Point
2240,7ec3d577-2f35-48a0-8293-e343f1c63e15,SAHJANAND ESTATE DABHOLI,"[72.815997, 21.234803]",Point
2503,7ec3d577-2f35-48a0-8293-e343f1c63e15,SOSYO CIRCLE,"[72.826962, 21.171035]",Point
2504,7ec3d577-2f35-48a0-8293-e343f1c63e15,GANDHI KUTIR,"[72.827824, 21.167864]",Point
2505,7ec3d577-2f35-48a0-8293-e343f1c63e15,SICKON CIRCLE,"[72.830482, 21.163724]",Point
2506,7ec3d577-2f35-48a0-8293-e343f1c63e15,ASHAPURA MATA MANDIR,"[72.831081, 21.161368]",Point
2507,7ec3d577-2f35-48a0-8293-e343f1c63e15,UMABHAVAN,"[72.831814, 21.158035]",Point
2508,7ec3d577-2f35-48a0-8293-e343f1c63e15,VISHNU NAGAR,"[72.832382, 21.155192]",Point
2509,7ec3d577-2f35-48a0-8293-e343f1c63e15,PIYUSH COMPLEX,"[72.833124, 21.151485]",Point
2510,7ec3d577-2f35-48a0-8293-e343f1c63e15,SMC SOUTH ZONE OFFICE,"[72.836907, 21.172178]",Point
2511,7ec3d577-2f35-48a0-8293-e343f1c63e15,JHANSI KI RANI GARDEN,"[72.837463, 21.169393]",Point
2512,7ec3d577-2f35-48a0-8293-e343f1c63e15,GAYATRI SOCIETY,"[72.838384, 21.166385]",Point
2513,7ec3d577-2f35-48a0-8293-e343f1c63e15,VEER SAVARKAR CIRCLE,"[72.839234, 21.160416]",Point
2514,7ec3d577-2f35-48a0-8293-e343f1c63e15,SHIV BHAKTI APARTMENT,"[72.8399, 21.155942]",Point
2515,7ec3d577-2f35-48a0-8293-e343f1c63e15,SMC COMMUNITY HALL UDHANA,"[72.840449, 21.152412]",Point
2516,7ec3d577-2f35-48a0-8293-e343f1c63e15,UDHANA STATION ROAD,"[72.851241, 21.168447]",Point
2553,7ec3d577-2f35-48a0-8293-e343f1c63e15,ASHANAGAR SOIETY,"[72.838446, 21.16293]",Point
2555,7ec3d577-2f35-48a0-8293-e343f1c63e15,MASTANNAGAR,"[72.841829, 21.168728]",Point
2556,7ec3d577-2f35-48a0-8293-e343f1c63e15,LAXMINAGAR,"[72.846489, 21.166814]",Point
2557,7ec3d577-2f35-48a0-8293-e343f1c63e15,UDHANA UDHYOG NAGAR,"[72.849311, 21.165898]",Point
2558,7ec3d577-2f35-48a0-8293-e343f1c63e15,UDHANA ROAD NO.6 JUNCTION,"[72.849628, 21.166023]",Point
2559,7ec3d577-2f35-48a0-8293-e343f1c63e15,ROAD NO. 3 UDHANA UDHYOG NAGAR CHAR RASTA,"[72.848938, 21.168906]",Point
2560,7ec3d577-2f35-48a0-8293-e343f1c63e15,UDHANA GIDC ROAD NO.3,"[72.848399, 21.170854]",Point
2621,7ec3d577-2f35-48a0-8293-e343f1c63e15,PANJARA POL GHOD DOD ROAD,"[72.815948, 21.176191]",Point
2622,7ec3d577-2f35-48a0-8293-e343f1c63e15,POLICE LINES,"[72.803582, 21.18016]",Point
2623,7ec3d577-2f35-48a0-8293-e343f1c63e15,ATHWA PUMPING STATION,"[72.804426, 21.177914]",Point
2624,7ec3d577-2f35-48a0-8293-e343f1c63e15,NARMAD CENTRAL LIBRARY,"[72.80536, 21.17572]",Point
2625,7ec3d577-2f35-48a0-8293-e343f1c63e15,K.P COMMERCE COLLEGE,"[72.809051, 21.183152]",Point
2626,7ec3d577-2f35-48a0-8293-e343f1c63e15,SEVENTH DAY SCHOOL,"[72.810102, 21.181239]",Point
2627,7ec3d577-2f35-48a0-8293-e343f1c63e15,ADARSH SOCIETY,"[72.811088, 21.178153]",Point
2628,7ec3d577-2f35-48a0-8293-e343f1c63e15,MAJURAGATE CIVIL HOSPITAL,"[72.818545, 21.179057]",Point
2629,7ec3d577-2f35-48a0-8293-e343f1c63e15,INCOME TAX,"[72.819246, 21.175846]",Point
2630,7ec3d577-2f35-48a0-8293-e343f1c63e15,KAPADIA HEALTH CLUB,"[72.81989, 21.172557]",Point
2631,7ec3d577-2f35-48a0-8293-e343f1c63e15,SOSYO CIRCLE UDHANA MAGDALLA ROAD,"[72.82637, 21.171976]",Point
2632,7ec3d577-2f35-48a0-8293-e343f1c63e15,SOMNATH SOCIETY UDHANA MAGDALLA ROAD,"[72.823982, 21.170098]",Point
2633,7ec3d577-2f35-48a0-8293-e343f1c63e15,NAVJIVAN CIRCLE UDHANA MAGDALLA ROAD,"[72.820285, 21.167256]",Point
2634,7ec3d577-2f35-48a0-8293-e343f1c63e15,GANDHIKUTIR JUNCTION UDHANA MAGDALLA ROAD,"[72.818035, 21.165403]",Point
2635,7ec3d577-2f35-48a0-8293-e343f1c63e15,ISHWAR NAGAR UDHANA MAGDALLA ROAD,"[72.815766, 21.164227]",Point
2636,7ec3d577-2f35-48a0-8293-e343f1c63e15,BHATAR FLYOVER UDHANA MAGDALLA ROAD,"[72.811182, 21.162847]",Point
2637,7ec3d577-2f35-48a0-8293-e343f1c63e15,VISHAL SOCIETY UDHANA MAGDALLA ROAD,"[72.807271, 21.16206]",Point
2638,7ec3d577-2f35-48a0-8293-e343f1c63e15,BRIEADLINER CIRCLE UDHANA MAGDALLA ROAD,"[72.804607, 21.161565]",Point
2301,7ec3d577-2f35-48a0-8293-e343f1c63e15,LAMBE HANUMAN TEMPLE,"[72.842799, 21.204348]",Point
2302,7ec3d577-2f35-48a0-8293-e343f1c63e15,J.B. DIAMOND,"[72.845777, 21.205365]",Point
2303,7ec3d577-2f35-48a0-8293-e343f1c63e15,VASANT BIKHA NI WADI,"[72.849152, 21.20584]",Point
2304,7ec3d577-2f35-48a0-8293-e343f1c63e15,MATAWADI CHOWK,"[72.85296, 21.208693]",Point
2305,7ec3d577-2f35-48a0-8293-e343f1c63e15,LAABHESHWAR CHOWK,"[72.856621, 21.210016]",Point
2306,7ec3d577-2f35-48a0-8293-e343f1c63e15,GHANSHYAM NAGAR,"[72.860779, 21.210737]",Point
2307,7ec3d577-2f35-48a0-8293-e343f1c63e15,SANTOSH NAGAR,"[72.863913, 21.211369]",Point
2308,7ec3d577-2f35-48a0-8293-e343f1c63e15,PODDAR ARCADE VARACHHA,"[72.84419, 21.207048]",Point
2314,7ec3d577-2f35-48a0-8293-e343f1c63e15,BHAGAT SINGH GARDEN,"[72.84648, 21.200457]",Point
2315,7ec3d577-2f35-48a0-8293-e343f1c63e15,KHAADI MOHALLA SHAALA,"[72.849249, 21.201292]",Point
2316,7ec3d577-2f35-48a0-8293-e343f1c63e15,BOMBAY MARKET,"[72.847814, 21.19787]",Point
2317,7ec3d577-2f35-48a0-8293-e343f1c63e15,NANDAALAY HAVELI,"[72.852988, 21.198502]",Point
2318,7ec3d577-2f35-48a0-8293-e343f1c63e15,RENUKA BHAVAN,"[72.855684, 21.199313]",Point
2319,7ec3d577-2f35-48a0-8293-e343f1c63e15,ARCHANA CHAR RASTA,"[72.859456, 21.200192]",Point
2322,7ec3d577-2f35-48a0-8293-e343f1c63e15,ASHWANIKUMAR ROAD,"[72.840947, 21.208401]",Point
2323,7ec3d577-2f35-48a0-8293-e343f1c63e15,VIDHI BHAVAN,"[72.842359, 21.210963]",Point
2324,7ec3d577-2f35-48a0-8293-e343f1c63e15,UMIYA CHOWK,"[72.843883, 21.212792]",Point
2325,7ec3d577-2f35-48a0-8293-e343f1c63e15,LEPROSY HOSPITAL,"[72.846275, 21.216273]",Point
2326,7ec3d577-2f35-48a0-8293-e343f1c63e15,PATEL NAGAR,"[72.848391, 21.218845]",Point
2339,7ec3d577-2f35-48a0-8293-e343f1c63e15,J.T. NAGAR,"[72.860015, 21.198184]",Point
2340,7ec3d577-2f35-48a0-8293-e343f1c63e15,RAGHUVIR BUSINESS HUB,"[72.860681, 21.194159]",Point
2241,7ec3d577-2f35-48a0-8293-e343f1c63e15,SARDAR PATEL SOCIETY DABHOLI,"[72.812903, 21.234604]",Point
2243,7ec3d577-2f35-48a0-8293-e343f1c63e15,BHARI TEMPLE,"[72.811117, 21.215807]",Point
2242,7ec3d577-2f35-48a0-8293-e343f1c63e15,FATAKDAWADI,"[72.813396, 21.212893]",Point
2244,7ec3d577-2f35-48a0-8293-e343f1c63e15,SURYA DARSHAN SOCIETY,"[72.809302, 21.218653]",Point
2245,7ec3d577-2f35-48a0-8293-e343f1c63e15,PREMANAND GARDEN SMC,"[72.807896, 21.221414]",Point
2246,7ec3d577-2f35-48a0-8293-e343f1c63e15,D MART,"[72.7931, 21.1951]",Point
2247,7ec3d577-2f35-48a0-8293-e343f1c63e15,SHUKAN SKY APARTMENT,"[72.80576, 21.23157]",Point
2258,7ec3d577-2f35-48a0-8293-e343f1c63e15,KATARGAM DARWAJA,"[72.82726, 21.211594]",Point
2259,7ec3d577-2f35-48a0-8293-e343f1c63e15,BALASHRAM CHAR RASTA,"[72.832289, 21.219044]",Point
2260,7ec3d577-2f35-48a0-8293-e343f1c63e15,ALKAPURI CIRCLE,"[72.84099, 21.219437]",Point
2261,7ec3d577-2f35-48a0-8293-e343f1c63e15,SUMUL DAIRY,"[72.840597, 21.216607]",Point
2262,7ec3d577-2f35-48a0-8293-e343f1c63e15,I.C. GANDHI SCHOOL,"[72.839985, 21.213449]",Point
2263,7ec3d577-2f35-48a0-8293-e343f1c63e15,RAILWAY PARCEL OFFICE,"[72.839779, 21.208747]",Point
2264,7ec3d577-2f35-48a0-8293-e343f1c63e15,V.N GODHANI SCHOOL,"[72.834308, 21.220615]",Point
2269,7ec3d577-2f35-48a0-8293-e343f1c63e15,SHARDA VIDHYA MANDIR,"[72.819416, 21.184032]",Point
2270,7ec3d577-2f35-48a0-8293-e343f1c63e15,SUMAN DARSHAN,"[72.808139, 21.223193]",Point
2271,7ec3d577-2f35-48a0-8293-e343f1c63e15,JALSA THEATRE,"[72.837858, 21.221005]",Point
2272,7ec3d577-2f35-48a0-8293-e343f1c63e15,SAGAR INDUSTRIAL ESTATE,"[72.836461, 21.216717]",Point
2273,7ec3d577-2f35-48a0-8293-e343f1c63e15,VENUS ESTATE,"[72.836334, 21.213216]",Point
2274,7ec3d577-2f35-48a0-8293-e343f1c63e15,PARIN GEMS,"[72.831827, 21.2119]",Point
2746,7ec3d577-2f35-48a0-8293-e343f1c63e15,HIDAYAT NAGAR POLICE STATION,"[72.782387, 21.210288]",Point
2747,7ec3d577-2f35-48a0-8293-e343f1c63e15,AMBEDKAR NAGAR,"[72.782419, 21.21443]",Point
2748,7ec3d577-2f35-48a0-8293-e343f1c63e15,VRUNDAVAN FLATS,"[72.78216, 21.215822]",Point
2749,7ec3d577-2f35-48a0-8293-e343f1c63e15,UGAT S.M.C. WATER TREATMENT PLANT,"[72.781077, 21.218783]",Point
2755,7ec3d577-2f35-48a0-8293-e343f1c63e15,JYOTINDRA DAVE GARDEN,"[72.791733, 21.203043]",Point
2756,7ec3d577-2f35-48a0-8293-e343f1c63e15,S.M.C. SPORTS COMPLEX,"[72.796455, 21.196964]",Point
2757,7ec3d577-2f35-48a0-8293-e343f1c63e15,SRI RAM PETROL PUMP,"[72.797708, 21.195462]",Point
2758,7ec3d577-2f35-48a0-8293-e343f1c63e15,BHULKA BHAVAN,"[72.799495, 21.19279]",Point
2759,7ec3d577-2f35-48a0-8293-e343f1c63e15,SHAHI MASJID ADAJAN GAM,"[72.794226, 21.191169]",Point
2760,7ec3d577-2f35-48a0-8293-e343f1c63e15,SPIPA (SURAT),"[72.793649, 21.194622]",Point
2761,7ec3d577-2f35-48a0-8293-e343f1c63e15,MAHALAXMI MANDIR,"[72.794778, 21.197018]",Point
2762,7ec3d577-2f35-48a0-8293-e343f1c63e15,GANGESHWAR MANDIR,"[72.792182, 21.197291]",Point
2763,7ec3d577-2f35-48a0-8293-e343f1c63e15,HONEY PARK CROSS ROAD,"[72.789101, 21.202663]",Point
2764,7ec3d577-2f35-48a0-8293-e343f1c63e15,GREEN RESIDENCY,"[72.790164, 21.199643]",Point
2765,7ec3d577-2f35-48a0-8293-e343f1c63e15,PATEL PRAGATI MANDAL,"[72.789305, 21.203032]",Point
2766,7ec3d577-2f35-48a0-8293-e343f1c63e15,AYODHYA NAGARI SOCIETY,"[72.789187, 21.206149]",Point
2767,7ec3d577-2f35-48a0-8293-e343f1c63e15,BSNL OFFICE,"[72.789282, 21.208142]",Point
2768,7ec3d577-2f35-48a0-8293-e343f1c63e15,BHAGYODAYA SOCIETY,"[72.788361, 21.211103]",Point
2769,7ec3d577-2f35-48a0-8293-e343f1c63e15,DINDAYAL SOCIETY,"[72.784696, 21.210259]",Point
2770,7ec3d577-2f35-48a0-8293-e343f1c63e15,PALANPUR JAKATNAKA,"[72.781864, 21.209577]",Point
2771,7ec3d577-2f35-48a0-8293-e343f1c63e15,SANDYA VADAN SOCIETY,"[72.780069, 21.209275]",Point
2772,7ec3d577-2f35-48a0-8293-e343f1c63e15,MINI VIRPUR,"[72.777317, 21.208945]",Point
2773,7ec3d577-2f35-48a0-8293-e343f1c63e15,RANDER FIRE STATION,"[72.792138, 21.224893]",Point
2774,7ec3d577-2f35-48a0-8293-e343f1c63e15,SHREENATHAJI HAVELI RAMNAGAR,"[72.785098, 21.219103]",Point
2775,7ec3d577-2f35-48a0-8293-e343f1c63e15,SHRI RAVISHANKAR MAHARAJ SCHOOL,"[72.785375, 21.216702]",Point
2776,7ec3d577-2f35-48a0-8293-e343f1c63e15,DGVCL GEB OFFICE PALANPUR,"[72.786171, 21.214596]",Point
2777,7ec3d577-2f35-48a0-8293-e343f1c63e15,SAI SQUARE,"[72.785324, 21.202025]",Point
2778,7ec3d577-2f35-48a0-8293-e343f1c63e15,L.P. SAVANI,"[72.782279, 21.200302]",Point
2779,7ec3d577-2f35-48a0-8293-e343f1c63e15,WESTERN CITY,"[72.77951, 21.200797]",Point
2780,7ec3d577-2f35-48a0-8293-e343f1c63e15,DEVASHISH NAGAR MORA BHAGAL,"[72.785228, 21.221863]",Point
2781,7ec3d577-2f35-48a0-8293-e343f1c63e15,PALANPUR PATIYA CIRCLE,"[72.790088, 21.211466]",Point
2716,7ec3d577-2f35-48a0-8293-e343f1c63e15,HANUMAN TEKARI,"[72.793586, 21.226583]",Point
2717,7ec3d577-2f35-48a0-8293-e343f1c63e15,LOKMANYA SCHOOL RANDER,"[72.792138, 21.224893]",Point
2718,7ec3d577-2f35-48a0-8293-e343f1c63e15,SMC STAFF QUARTERS,"[72.77788, 21.218366]",Point
2719,7ec3d577-2f35-48a0-8293-e343f1c63e15,TAPASH NAGAR,"[72.777518, 21.215125]",Point
2721,7ec3d577-2f35-48a0-8293-e343f1c63e15,MINI VIRPUR TEMPLE,"[72.77688, 21.209135]",Point
2722,7ec3d577-2f35-48a0-8293-e343f1c63e15,ROYAL PLATINUM,"[72.77647, 21.205432]",Point
2723,7ec3d577-2f35-48a0-8293-e343f1c63e15,SHANTVAN ROW HOUSE,"[72.776896, 21.203253]",Point
2730,7ec3d577-2f35-48a0-8293-e343f1c63e15,SHAKTI NIKETAN MANDIR,"[72.807109, 21.196062]",Point
2731,7ec3d577-2f35-48a0-8293-e343f1c63e15,CORPORATION SCHOOL,"[72.80962, 21.195266]",Point
2732,7ec3d577-2f35-48a0-8293-e343f1c63e15,PARAM ROW HOUSE,"[72.807773, 21.192876]",Point
2733,7ec3d577-2f35-48a0-8293-e343f1c63e15,BAPS SWAMINARAYAN SANSTHA,"[72.805203, 21.190259]",Point
2734,7ec3d577-2f35-48a0-8293-e343f1c63e15,BHAGWAN PARK,"[72.802831, 21.188771]",Point
2735,7ec3d577-2f35-48a0-8293-e343f1c63e15,BADRINATH MANDIR,"[72.800463, 21.187336]",Point
2737,7ec3d577-2f35-48a0-8293-e343f1c63e15,JAGDISHCHANDRA BOSE GARDEN,"[72.793529, 21.184574]",Point
2738,7ec3d577-2f35-48a0-8293-e343f1c63e15,STAR BAZAAR,"[72.79279, 21.186033]",Point
2739,7ec3d577-2f35-48a0-8293-e343f1c63e15,ADAJAN GAM,"[72.790392, 21.18801]",Point
2740,7ec3d577-2f35-48a0-8293-e343f1c63e15,TRINITY BUSINESS PARK,"[72.788687, 21.190871]",Point
2741,7ec3d577-2f35-48a0-8293-e343f1c63e15,GREEN AVENUE,"[72.786234, 21.19442]",Point
2742,7ec3d577-2f35-48a0-8293-e343f1c63e15,S.M.C. PERFORMING ART CENTRE,"[72.784233, 21.197495]",Point
2743,7ec3d577-2f35-48a0-8293-e343f1c63e15,L.P SAVANI VIDHYABHAVAN,"[72.781917, 21.200858]",Point
2744,7ec3d577-2f35-48a0-8293-e343f1c63e15,EKTA NAGAR,"[72.782266, 21.204096]",Point
2745,7ec3d577-2f35-48a0-8293-e343f1c63e15,VIDHYAKUNJ,"[72.782575, 21.20777]",Point
2695,7ec3d577-2f35-48a0-8293-e343f1c63e15,VIVEKANAND GARDEN,"[72.811787, 21.169161]",Point
2696,7ec3d577-2f35-48a0-8293-e343f1c63e15,JIVKOR NAGAR BHATAR,"[72.812133, 21.166737]",Point
2697,7ec3d577-2f35-48a0-8293-e343f1c63e15,SANJIVANI CIRCLE BHATAR,"[72.812595, 21.163576]",Point
2701,7ec3d577-2f35-48a0-8293-e343f1c63e15,SIDDIQUI SQUARE,"[72.808469, 21.201501]",Point
2702,7ec3d577-2f35-48a0-8293-e343f1c63e15,JILANI COMPLEX,"[72.807537, 21.204622]",Point
2703,7ec3d577-2f35-48a0-8293-e343f1c63e15,ALFESANI SCHOOL,"[72.803636, 21.209815]",Point
2704,7ec3d577-2f35-48a0-8293-e343f1c63e15,MADNI SOCIETY,"[72.801937, 21.21215]",Point
2705,7ec3d577-2f35-48a0-8293-e343f1c63e15,AL AMIN,"[72.800282, 21.214355]",Point
2706,7ec3d577-2f35-48a0-8293-e343f1c63e15,HAMZA APARTMENT,"[72.805647, 21.207087]",Point
2707,7ec3d577-2f35-48a0-8293-e343f1c63e15,ROYAL HERITAGE,"[72.797471, 21.215377]",Point
2708,7ec3d577-2f35-48a0-8293-e343f1c63e15,ARYA SAMAJ MARG,"[72.795265, 21.216303]",Point
2709,7ec3d577-2f35-48a0-8293-e343f1c63e15,SUBHASH GARDEN,"[72.787729, 21.225146]",Point
2710,7ec3d577-2f35-48a0-8293-e343f1c63e15,SUNDARVAN ROW HOUSE,"[72.784322, 21.227069]",Point
2711,7ec3d577-2f35-48a0-8293-e343f1c63e15,SAMDRASTI PARK,"[72.784322, 21.227069]",Point
2712,7ec3d577-2f35-48a0-8293-e343f1c63e15,MORA BHAGAL,"[72.788897, 21.222164]",Point
2713,7ec3d577-2f35-48a0-8293-e343f1c63e15,SUMAN NURSERY,"[72.784872, 21.222283]",Point
2714,7ec3d577-2f35-48a0-8293-e343f1c63e15,S.M.C. BOTANICAL GARDEN,"[72.7821, 21.221742]",Point
2715,7ec3d577-2f35-48a0-8293-e343f1c63e15,SANJAY SOCIETY,"[72.792013, 21.229827]",Point
4318,7ec3d577-2f35-48a0-8293-e343f1c63e15,BAPA SITARAM CHOWK YOGI NAGAR,"[72.894998, 21.218434]",Point
10,7ec3d577-2f35-48a0-8293-e343f1c63e15,RAILWAY STATION TERMINAL,"[72.840415, 21.204271]",Point
1001,7ec3d577-2f35-48a0-8293-e343f1c63e15,LINEAR BUS STOP,"[72.840139, 21.201664]",Point
1002,7ec3d577-2f35-48a0-8293-e343f1c63e15,GOLDEN POINT,"[72.842531, 21.199319]",Point
1003,7ec3d577-2f35-48a0-8293-e343f1c63e15,SAHARA DARWAJA,"[72.843773, 21.195304]",Point
1004,7ec3d577-2f35-48a0-8293-e343f1c63e15,TEXTILE MARKET,"[72.842311, 21.190972]",Point
1005,7ec3d577-2f35-48a0-8293-e343f1c63e15,KAMELA DARWAJA,"[72.839849, 21.188087]",Point
1006,7ec3d577-2f35-48a0-8293-e343f1c63e15,KINNARY CINEMA,"[72.83681, 21.185507]",Point
1007,7ec3d577-2f35-48a0-8293-e343f1c63e15,MAAN DARWAJA,"[72.833031, 21.183651]",Point
1008,7ec3d577-2f35-48a0-8293-e343f1c63e15,SUB JAIL,"[72.827537, 21.182054]",Point
1009,7ec3d577-2f35-48a0-8293-e343f1c63e15,GANDHI COLLEGE,"[72.815653, 21.181594]",Point
1010,7ec3d577-2f35-48a0-8293-e343f1c63e15,NEW CIVIL HOSPITAL,"[72.821412, 21.180524]",Point
1011,7ec3d577-2f35-48a0-8293-e343f1c63e15,MAJURA GATE,"[72.818134, 21.180563]",Point
1012,7ec3d577-2f35-48a0-8293-e343f1c63e15,SWAMINARAYAN CHOWK BRTS,"[72.803081, 21.194877]",Point
1013,7ec3d577-2f35-48a0-8293-e343f1c63e15,DHANMORA / ADAJAN PATIYA BRTS,"[72.806326, 21.197978]",Point
1015,7ec3d577-2f35-48a0-8293-e343f1c63e15,KATARGAM DARWAJA BRT,"[72.827728, 21.211373]",Point
1016,7ec3d577-2f35-48a0-8293-e343f1c63e15,GOTALAWADI,"[72.831348, 21.211243]",Point
1017,7ec3d577-2f35-48a0-8293-e343f1c63e15,KABIR MANDIR RAMPURA,"[72.833389, 21.209092]",Point
1021,7ec3d577-2f35-48a0-8293-e343f1c63e15,VANITA VISHRAM GROUND,"[72.813026, 21.183882]",Point
1022,7ec3d577-2f35-48a0-8293-e343f1c63e15,ATHWAGATE,"[72.811335, 21.185146]",Point
1101,7ec3d577-2f35-48a0-8293-e343f1c63e15,GIRLS POLYTECHNIC,"[72.810458, 21.186783]",Point
1102,7ec3d577-2f35-48a0-8293-e343f1c63e15,BAHUMALI,"[72.810941, 21.188442]",Point
1103,7ec3d577-2f35-48a0-8293-e343f1c63e15,NANPURA POST OFFICE,"[72.812977, 21.190205]",Point
1104,7ec3d577-2f35-48a0-8293-e343f1c63e15,DUTCH GARDEN,"[72.81357, 21.191259]",Point
1106,7ec3d577-2f35-48a0-8293-e343f1c63e15,CHOWK BAZAR,"[72.81941, 21.19624]",Point
1105,7ec3d577-2f35-48a0-8293-e343f1c63e15,MAKKAI POOL,"[72.815777, 21.192293]",Point
1107,7ec3d577-2f35-48a0-8293-e343f1c63e15,FURAJA CHOWK,"[72.819789, 21.198424]",Point
1109,7ec3d577-2f35-48a0-8293-e343f1c63e15,I.P. MISSION SCHOOL,"[72.821354, 21.202005]",Point
1108,7ec3d577-2f35-48a0-8293-e343f1c63e15,S.M.C. CENTRAL ZONE OFFICE,"[72.82066, 21.20004]",Point
1110,7ec3d577-2f35-48a0-8293-e343f1c63e15,VARIYALI BAZAR POLICE CHOWKI,"[72.823877, 21.205253]",Point
1111,7ec3d577-2f35-48a0-8293-e343f1c63e15,HODI BUNGALOW,"[72.8246, 21.207841]",Point
1112,7ec3d577-2f35-48a0-8293-e343f1c63e15,PUMPING CHAR RASTA,"[72.825768, 21.206237]",Point
1113,7ec3d577-2f35-48a0-8293-e343f1c63e15,SAIYEDPURA VEGETABLE MARKET,"[72.826918, 21.203766]",Point
1114,7ec3d577-2f35-48a0-8293-e343f1c63e15,KASKIWAD,"[72.828622, 21.201367]",Point
1115,7ec3d577-2f35-48a0-8293-e343f1c63e15,BHAJIWALI POL,"[72.829615, 21.199329]",Point
1116,7ec3d577-2f35-48a0-8293-e343f1c63e15,KOT SAFIL ROAD,"[72.829827, 21.196232]",Point
1117,7ec3d577-2f35-48a0-8293-e343f1c63e15,WADI FALIYA,"[72.830196, 21.193984]",Point
1118,7ec3d577-2f35-48a0-8293-e343f1c63e15,GOPI TALAV,"[72.829703, 21.191816]",Point
1119,7ec3d577-2f35-48a0-8293-e343f1c63e15,GOPI TALAV MARKET,"[72.827764, 21.190091]",Point
1120,7ec3d577-2f35-48a0-8293-e343f1c63e15,NAVSARI BAZAR,"[72.826622, 21.189167]",Point
1121,7ec3d577-2f35-48a0-8293-e343f1c63e15,JANTA HOSPITAL,"[72.827937, 21.186752]",Point
1122,7ec3d577-2f35-48a0-8293-e343f1c63e15,RUSTAMPURA SWIMMING POOL,"[72.829101, 21.185272]",Point
1123,7ec3d577-2f35-48a0-8293-e343f1c63e15,SANSKAR BHAVAN,"[72.81886, 21.182333]",Point
1124,7ec3d577-2f35-48a0-8293-e343f1c63e15,SHARDA SCHOOL,"[72.819394, 21.183992]",Point
1125,7ec3d577-2f35-48a0-8293-e343f1c63e15,KSHETRAPAL MANDIR,"[72.821974, 21.186005]",Point
1126,7ec3d577-2f35-48a0-8293-e343f1c63e15,TALAWDI SAGRAMPURA,"[72.824619, 21.187747]",Point
1127,7ec3d577-2f35-48a0-8293-e343f1c63e15,S.M.C. WATER DEPARTMENT,"[72.8244, 21.1888]",Point
1128,7ec3d577-2f35-48a0-8293-e343f1c63e15,KHWAJA DANA NEW ROAD,"[72.8217, 21.1903]",Point
1129,7ec3d577-2f35-48a0-8293-e343f1c63e15,HIJDAWAD,"[72.8194, 21.1905]",Point
1130,7ec3d577-2f35-48a0-8293-e343f1c63e15,KUVAWADI,"[72.817088, 21.189641]",Point
1131,7ec3d577-2f35-48a0-8293-e343f1c63e15,MAN MANDIR APARTMENT,"[72.814859, 21.187712]",Point
1132,7ec3d577-2f35-48a0-8293-e343f1c63e15,MAHAVIR HOSPITAL,"[72.814038, 21.184912]",Point
1133,7ec3d577-2f35-48a0-8293-e343f1c63e15,MACHHIWAD,"[72.817176, 21.191812]",Point
1134,7ec3d577-2f35-48a0-8293-e343f1c63e15,KEVAL CIRCLE,"[72.817702, 21.190268]",Point
1136,7ec3d577-2f35-48a0-8293-e343f1c63e15,SYMGA SCHOOL,"[72.819699, 21.185971]",Point
1135,7ec3d577-2f35-48a0-8293-e343f1c63e15,KADARSHAH NI NAL,"[72.819073, 21.187846]",Point
1137,7ec3d577-2f35-48a0-8293-e343f1c63e15,NEHRU BRIDGE,"[72.819002, 21.196677]",Point
1138,7ec3d577-2f35-48a0-8293-e343f1c63e15,BHAGATALAV,"[72.823413, 21.197498]",Point
1139,7ec3d577-2f35-48a0-8293-e343f1c63e15,LALGATE / CHOUTAPUL,"[72.825069, 21.198604]",Point
1141,7ec3d577-2f35-48a0-8293-e343f1c63e15,BHAGAL,"[72.831051, 21.197682]",Point
1140,7ec3d577-2f35-48a0-8293-e343f1c63e15,LIMDA CHOWK,"[72.827683, 21.198549]",Point
1142,7ec3d577-2f35-48a0-8293-e343f1c63e15,MAHIDHARPURA POST OFFICE,"[72.833931, 21.198153]",Point
1143,7ec3d577-2f35-48a0-8293-e343f1c63e15,MOTI TALKIES,"[72.836461, 21.198788]",Point
1144,7ec3d577-2f35-48a0-8293-e343f1c63e15,DELHI GATE,"[72.838629, 21.201756]",Point
1145,7ec3d577-2f35-48a0-8293-e343f1c63e15,RUWAALA TEKRA,"[72.830637, 21.198718]",Point
1146,7ec3d577-2f35-48a0-8293-e343f1c63e15,PIRCHHADI,"[72.833591, 21.20019]",Point
1147,7ec3d577-2f35-48a0-8293-e343f1c63e15,GALEMANDIR CHOWK,"[72.83591, 21.201117]",Point
1148,7ec3d577-2f35-48a0-8293-e343f1c63e15,BALAJI MANDIR,"[72.838348, 21.202612]",Point
1149,7ec3d577-2f35-48a0-8293-e343f1c63e15,VIJAY VALLABH CHOWK,"[72.819807, 21.184366]",Point
1150,7ec3d577-2f35-48a0-8293-e343f1c63e15,UDHANA DARWAJA,"[72.830116, 21.183993]",Point
1151,7ec3d577-2f35-48a0-8293-e343f1c63e15,BHAGAL CHAR RASTA,"[72.829739, 21.197861]",Point
1152,7ec3d577-2f35-48a0-8293-e343f1c63e15,LAL DARWAJA,"[72.835741, 21.206506]",Point
20,7ec3d577-2f35-48a0-8293-e343f1c63e15,CHOWK TERMINAL,"[72.818232, 21.194566]",Point
2001,7ec3d577-2f35-48a0-8293-e343f1c63e15,PAL R.T.O. BRTS,"[72.78094, 21.182332]",Point
2002,7ec3d577-2f35-48a0-8293-e343f1c63e15,SANJEEV KUMAR AUDITORIUM BRTS,"[72.786039, 21.183125]",Point
2003,7ec3d577-2f35-48a0-8293-e343f1c63e15,ADAJAN GAM BRTS,"[72.795757, 21.189049]",Point
2004,7ec3d577-2f35-48a0-8293-e343f1c63e15,ANAND MAHAL ROAD BRTS,"[72.79954, 21.192364]",Point
2005,7ec3d577-2f35-48a0-8293-e343f1c63e15,SHANKHESHWAR CHOWK BRTS,"[72.805964, 21.198946]",Point
2006,7ec3d577-2f35-48a0-8293-e343f1c63e15,NAVYUG COLLEGE BRTS,"[72.80202, 21.201776]",Point
2007,7ec3d577-2f35-48a0-8293-e343f1c63e15,S.M.C. WEST ZONE OFFICE BRTS,"[72.799168, 21.20501]",Point
2008,7ec3d577-2f35-48a0-8293-e343f1c63e15,TADWADI BRTS,"[72.796065, 21.208267]",Point
2009,7ec3d577-2f35-48a0-8293-e343f1c63e15,PALANPUR PATIYA BRTS,"[72.792687, 21.212184]",Point
2010,7ec3d577-2f35-48a0-8293-e343f1c63e15,RAMNAGAR BRTS,"[72.791422, 21.216198]",Point
2011,7ec3d577-2f35-48a0-8293-e343f1c63e15,MORABHAGAL BRTS,"[72.789978, 21.22137]",Point
2012,7ec3d577-2f35-48a0-8293-e343f1c63e15,JAHANGIRPURA COMMUNITY HALL BRTS,"[72.790158, 21.228113]",Point
2013,7ec3d577-2f35-48a0-8293-e343f1c63e15,DR. SHYAMAPRASAD MUKHARJI BRIDGE BRTS,"[72.80311, 21.232457]",Point
2016,7ec3d577-2f35-48a0-8293-e343f1c63e15,SHREE SAHJANAND CHOWK / DABHOLI CHAR RASTA BRTS,"[72.822711, 21.230454]",Point
2017,7ec3d577-2f35-48a0-8293-e343f1c63e15,BAPA SITARAM CHOWK BRTS,"[72.826499, 21.229829]",Point
2021,7ec3d577-2f35-48a0-8293-e343f1c63e15,PANDIT SHYAMJI KRISHNA VERMA BRIDGE BRTS,"[72.841381, 21.23289]",Point
2022,7ec3d577-2f35-48a0-8293-e343f1c63e15,GAJERA CIRCLE BRTS,"[72.83835, 21.228138]",Point
2023,7ec3d577-2f35-48a0-8293-e343f1c63e15,KATARGAM BRT,"[72.836415, 21.221533]",Point
2024,7ec3d577-2f35-48a0-8293-e343f1c63e15,FULPADA ROAD BRTS,"[72.841305, 21.227336]",Point
2026,7ec3d577-2f35-48a0-8293-e343f1c63e15,VALLABHACHARYA ROAD BRTS,"[72.856877, 21.217525]",Point
2025,7ec3d577-2f35-48a0-8293-e343f1c63e15,"SHREE SWAMINARAYAN MANDIR RUSTOM BAUG / ASHWINIKUMAR, FULPADA BRTS","[72.851517, 21.219746]",Point
2027,7ec3d577-2f35-48a0-8293-e343f1c63e15,HIRABAUG BRTS,"[72.862013, 21.216187]",Point
2028,7ec3d577-2f35-48a0-8293-e343f1c63e15,"D.G.V.C.L URJA SADAN, KAPODARA BRTS","[72.865668, 21.216939]",Point
2029,7ec3d577-2f35-48a0-8293-e343f1c63e15,DR. SHYAMAPRASAD MUKHARJI LAKE GARDEN BRTS,"[72.837923, 21.224536]",Point
2030,7ec3d577-2f35-48a0-8293-e343f1c63e15,LAMBE HANUMAN ROAD BRTS,"[72.865023, 21.210927]",Point
2031,7ec3d577-2f35-48a0-8293-e343f1c63e15,ANJANI BOOT BHAVANI ROAD BRTS,"[72.866443, 21.205663]",Point
2032,7ec3d577-2f35-48a0-8293-e343f1c63e15,SITANAGAR BRTS,"[72.867368, 21.201134]",Point
2033,7ec3d577-2f35-48a0-8293-e343f1c63e15,PUNA CANAL BRTS,"[72.869533, 21.193364]",Point
2034,7ec3d577-2f35-48a0-8293-e343f1c63e15,AMAZIA AMUSEMENT PARK BRTS,"[72.86656, 21.192617]",Point
2035,7ec3d577-2f35-48a0-8293-e343f1c63e15,PARVAT PATIYA JUNCTION BRTS,"[72.862451, 21.190039]",Point
2036,7ec3d577-2f35-48a0-8293-e343f1c63e15,MODEL TOWN JUNCTION BRTS,"[72.859053, 21.187798]",Point
2037,7ec3d577-2f35-48a0-8293-e343f1c63e15,SAMRAT VIDHYALAYA BRTS,"[72.855661, 21.186204]",Point
2038,7ec3d577-2f35-48a0-8293-e343f1c63e15,BHATHENA JUNCTION BRTS,"[72.842196, 21.181818]",Point
2039,7ec3d577-2f35-48a0-8293-e343f1c63e15,KHARWARNAGAR CREEK BRTS,"[72.838806, 21.180376]",Point
2040,7ec3d577-2f35-48a0-8293-e343f1c63e15,UDHANA DARWAJA BRTS,"[72.831382, 21.182516]",Point
2041,7ec3d577-2f35-48a0-8293-e343f1c63e15,KHARWARNAGAR BRTS,"[72.834178, 21.177901]",Point
2042,7ec3d577-2f35-48a0-8293-e343f1c63e15,"PANDIT DINDAYAL UPADHYAY BHAVAN, SATYANAGAR BRTS","[72.837398, 21.174623]",Point
2043,7ec3d577-2f35-48a0-8293-e343f1c63e15,UDHANA TEEN RASTA BRTS,"[72.839797, 21.170976]",Point
2044,7ec3d577-2f35-48a0-8293-e343f1c63e15,UDHANA GSRTC BRTS,"[72.840785, 21.165639]",Point
2045,7ec3d577-2f35-48a0-8293-e343f1c63e15,UDHANA ACADEMY COLLEGE BRTS,"[72.842432, 21.160311]",Point
2046,7ec3d577-2f35-48a0-8293-e343f1c63e15,LAXMI NARAYAN TEMPLE BRTS,"[72.843805, 21.157056]",Point
2047,7ec3d577-2f35-48a0-8293-e343f1c63e15,DAKSHESHWAR MAHADEV BRTS,"[72.845467, 21.153008]",Point
2048,7ec3d577-2f35-48a0-8293-e343f1c63e15,KHATODARA GIDC BRTS,"[72.82997, 21.176472]",Point
2049,7ec3d577-2f35-48a0-8293-e343f1c63e15,UNIQUE HOSPITAL JUNCTION BRTS,"[72.825994, 21.174755]",Point
2050,7ec3d577-2f35-48a0-8293-e343f1c63e15,"PRAJAPITA BRAHMAKUMARI MARG / CIVIL ROAD, MAJURAT FIRE STATION BRTS","[72.820473, 21.1722]",Point
2051,7ec3d577-2f35-48a0-8293-e343f1c63e15,RUPALI JUNCTION BRTS,"[72.816412, 21.170972]",Point
2052,7ec3d577-2f35-48a0-8293-e343f1c63e15,JAMNA NAGAR JUNCTION BRTS,"[72.810914, 21.169579]",Point
2053,7ec3d577-2f35-48a0-8293-e343f1c63e15,ISHWAR FARM JUNCTION BRTS,"[72.806345, 21.167955]",Point
2054,7ec3d577-2f35-48a0-8293-e343f1c63e15,PANAS GAM JUNCTION BRTS,"[72.800288, 21.165169]",Point
2055,7ec3d577-2f35-48a0-8293-e343f1c63e15,ANUVRAT DWAR JUNCTION (EAST) BRTS,"[72.797689, 21.162522]",Point
2056,7ec3d577-2f35-48a0-8293-e343f1c63e15,ANUVRAT DWAR JUNCTION (WEST) BRTS,"[72.794731, 21.159594]",Point
2057,7ec3d577-2f35-48a0-8293-e343f1c63e15,CHINAGATE BRTS,"[72.797139, 21.157933]",Point
2058,7ec3d577-2f35-48a0-8293-e343f1c63e15,BHARTHANA BRTS,"[72.797525, 21.152835]",Point
2059,7ec3d577-2f35-48a0-8293-e343f1c63e15,ALTHAN BHARTHANA BRTS,"[72.79822, 21.148181]",Point
2060,7ec3d577-2f35-48a0-8293-e343f1c63e15,SHYAM MANDIR BRTS,"[72.800105, 21.14459]",Point
2061,7ec3d577-2f35-48a0-8293-e343f1c63e15,ALTHAN CANAL BRTS,"[72.806217, 21.146307]",Point
2062,7ec3d577-2f35-48a0-8293-e343f1c63e15,ALTHAN KHADI BRTS,"[72.813234, 21.147938]",Point
2063,7ec3d577-2f35-48a0-8293-e343f1c63e15,PANCHMUKHI HANUMAN MANDIR BRTS,"[72.818151, 21.149008]",Point
2064,7ec3d577-2f35-48a0-8293-e343f1c63e15,KAILASH NAGAR BRTS,"[72.823028, 21.149517]",Point
2065,7ec3d577-2f35-48a0-8293-e343f1c63e15,PATRAKAR COLONY BRTS,"[72.828092, 21.150073]",Point
2066,7ec3d577-2f35-48a0-8293-e343f1c63e15,CHIKUWADI BRTS,"[72.837255, 21.151202]",Point
2067,7ec3d577-2f35-48a0-8293-e343f1c63e15,TULSIDHAM BRTS,"[72.842169, 21.151691]",Point
2068,7ec3d577-2f35-48a0-8293-e343f1c63e15,DINDOLI VARIGRUH BRTS,"[72.864633, 21.151162]",Point
2069,7ec3d577-2f35-48a0-8293-e343f1c63e15,DINDOLI KHARWASA ROAD BRTS,"[72.86877, 21.153692]",Point
2070,7ec3d577-2f35-48a0-8293-e343f1c63e15,"MAHARANA PRATAP BRIDGE / SAI BABA TEMPLE, DINDOLI BRTS","[72.870521, 21.156946]",Point
2071,7ec3d577-2f35-48a0-8293-e343f1c63e15,MANGAL PANDEY HALL BRTS,"[72.871891, 21.16543]",Point
2072,7ec3d577-2f35-48a0-8293-e343f1c63e15,AASPAS DADA TEMPLE BRTS,"[72.871642, 21.168519]",Point
2073,7ec3d577-2f35-48a0-8293-e343f1c63e15,JAI JOGANI MATA CHOWK BRTS,"[72.871358, 21.171922]",Point
2074,7ec3d577-2f35-48a0-8293-e343f1c63e15,MAHARANA PRATAP CHOWK / DEVADH GAM BRTS,"[72.871054, 21.175805]",Point
2075,7ec3d577-2f35-48a0-8293-e343f1c63e15,PARVAT GAM BRTS,"[72.871346, 21.181745]",Point
2076,7ec3d577-2f35-48a0-8293-e343f1c63e15,MAGOB PARVAT KHADI BRIDGE BRTS,"[72.871047, 21.18556]",Point
2077,7ec3d577-2f35-48a0-8293-e343f1c63e15,SMIMER HOSPITAL BRT,"[72.847575, 21.194254]",Point
2078,7ec3d577-2f35-48a0-8293-e343f1c63e15,APMC SARDAR MARKET BRTS,"[72.854112, 21.192967]",Point
2079,7ec3d577-2f35-48a0-8293-e343f1c63e15,AAI MATA CHOWK BRTS,"[72.857517, 21.191936]",Point
2080,7ec3d577-2f35-48a0-8293-e343f1c63e15,SHREE SANT KHETESHWAR CIRCLE / PARVAT PATIYA BRTS,"[72.861729, 21.191149]",Point
2081,7ec3d577-2f35-48a0-8293-e343f1c63e15,MAGOB GAM BRT,"[72.868282, 21.19016]",Point
2082,7ec3d577-2f35-48a0-8293-e343f1c63e15,"S.M.C. VARACHHA HEALTH CENTRE, PODAR ARCADE BRTS","[72.843427, 21.207472]",Point
2083,7ec3d577-2f35-48a0-8293-e343f1c63e15,CENTRAL WARE HOUSE BRTS,"[72.8475, 21.2089]",Point
2084,7ec3d577-2f35-48a0-8293-e343f1c63e15,MINI HIRA BAZAAR / MAANGADH CHOWK BRTS,"[72.851881, 21.210514]",Point
2085,7ec3d577-2f35-48a0-8293-e343f1c63e15,BARODA PRISTAGE BRTS,"[72.856533, 21.212184]",Point
2086,7ec3d577-2f35-48a0-8293-e343f1c63e15,SHRIMAD VALLABHACHARYA CHOWK / HIRABAUG BRTS,"[72.860089, 21.21375]",Point
2201,7ec3d577-2f35-48a0-8293-e343f1c63e15,MAKBARA MASJID,"[72.823125, 21.211033]",Point
2202,7ec3d577-2f35-48a0-8293-e343f1c63e15,SANT JALARAM SOCIETY,"[72.822395, 21.212986]",Point
2203,7ec3d577-2f35-48a0-8293-e343f1c63e15,NANI BAHUCHARAJI TEMPLE,"[72.822467, 21.215076]",Point
2204,7ec3d577-2f35-48a0-8293-e343f1c63e15,PANDOL POLICE CHOWKI,"[72.821993, 21.218872]",Point
2205,7ec3d577-2f35-48a0-8293-e343f1c63e15,AKHAND ANAND COLLEGE,"[72.821532, 21.221579]",Point
2206,7ec3d577-2f35-48a0-8293-e343f1c63e15,VAADINATH CHOWK,"[72.821359, 21.22376]",Point
2207,7ec3d577-2f35-48a0-8293-e343f1c63e15,GOPAL NAGAR,"[72.821345, 21.226609]",Point
2208,7ec3d577-2f35-48a0-8293-e343f1c63e15,SHREE SWAMINARAYAN MANDIR,"[72.821586, 21.22977]",Point
2209,7ec3d577-2f35-48a0-8293-e343f1c63e15,DABHOLI CHAR RASTA,"[72.821555, 21.230931]",Point
2210,7ec3d577-2f35-48a0-8293-e343f1c63e15,PRAMUKH SWAMY CHOWK,"[72.82091, 21.234161]",Point
2211,7ec3d577-2f35-48a0-8293-e343f1c63e15,PRAMUKH YOG APARTMENT DABHOLI,"[72.803085, 21.23151]",Point
2212,7ec3d577-2f35-48a0-8293-e343f1c63e15,SILVER STONE HOMES DABHOLI,"[72.804963, 21.230396]",Point
2213,7ec3d577-2f35-48a0-8293-e343f1c63e15,SARJAN AVENUE APARTMENT,"[72.806311, 21.228604]",Point
2214,7ec3d577-2f35-48a0-8293-e343f1c63e15,KANTHARIYA HANUMAN CHOWK,"[72.806621, 21.225666]",Point
2215,7ec3d577-2f35-48a0-8293-e343f1c63e15,KANTHARIYA HANUMAN TEMPLE,"[72.809075, 21.225322]",Point
2217,7ec3d577-2f35-48a0-8293-e343f1c63e15,SINGANPORE S.T.P,"[72.81419, 21.221112]",Point
2218,7ec3d577-2f35-48a0-8293-e343f1c63e15,TRILOK SOCIETY,"[72.818283, 21.220734]",Point
2219,7ec3d577-2f35-48a0-8293-e343f1c63e15,KATARGAM POLICE STATION,"[72.83033, 21.216651]",Point
2220,7ec3d577-2f35-48a0-8293-e343f1c63e15,BAL ASHRAM,"[72.832021, 21.218826]",Point
2221,7ec3d577-2f35-48a0-8293-e343f1c63e15,KATARGAM FIRE STATION,"[72.832574, 21.222155]",Point
2223,7ec3d577-2f35-48a0-8293-e343f1c63e15,KANTARESHWAR MAHADEV,"[72.831011, 21.226767]",Point
2224,7ec3d577-2f35-48a0-8293-e343f1c63e15,HARE KRISHNA CIRCLE,"[72.828566, 21.232727]",Point
2222,7ec3d577-2f35-48a0-8293-e343f1c63e15,KATARGAM,"[72.832464, 21.224693]",Point
2225,7ec3d577-2f35-48a0-8293-e343f1c63e15,RADADYA VIDHYALAYA,"[72.827086, 21.235002]",Point
2226,7ec3d577-2f35-48a0-8293-e343f1c63e15,LALITA CIRCLE,"[72.829989, 21.229887]",Point
2227,7ec3d577-2f35-48a0-8293-e343f1c63e15,RAJ LAXMI HEIGHTS,"[72.811738, 21.225072]",Point
2228,7ec3d577-2f35-48a0-8293-e343f1c63e15,SMC HALL SINGANPORE,"[72.815362, 21.225362]",Point
2229,7ec3d577-2f35-48a0-8293-e343f1c63e15,SINGANPORE VEGETABLE MARKET,"[72.81809, 21.225438]",Point
2230,7ec3d577-2f35-48a0-8293-e343f1c63e15,SINGANPORE CIRCLE,"[72.821141, 21.224784]",Point
2231,7ec3d577-2f35-48a0-8293-e343f1c63e15,AASHIRWAD DOCTOR HOUSE,"[72.823451, 21.223874]",Point
2232,7ec3d577-2f35-48a0-8293-e343f1c63e15,J K P NAGAR SOCIETY,"[72.82688, 21.22379]",Point
2233,7ec3d577-2f35-48a0-8293-e343f1c63e15,SNEH NAGAR SOCIETY,"[72.829446, 21.224273]",Point
2235,7ec3d577-2f35-48a0-8293-e343f1c63e15,GAYATRI MANDIR,"[72.787298, 21.222383]",Point
2236,7ec3d577-2f35-48a0-8293-e343f1c63e15,KIRAN HOSPITAL,"[72.837629, 21.219492]",Point
2237,7ec3d577-2f35-48a0-8293-e343f1c63e15,GAYATRI MANDIR DABHOLI CLUSTER,"[72.820499, 21.230715]",Point
2238,7ec3d577-2f35-48a0-8293-e343f1c63e15,KAILASH NAGAR DABHOLI,"[72.818324, 21.231486]",Point
2239,7ec3d577-2f35-48a0-8293-e343f1c63e15,SHREE KUNJ SOCIETY,"[72.818582, 21.234609]",Point
2240,7ec3d577-2f35-48a0-8293-e343f1c63e15,SAHJANAND ESTATE DABHOLI,"[72.815997, 21.234803]",Point
2241,7ec3d577-2f35-48a0-8293-e343f1c63e15,SARDAR PATEL SOCIETY DABHOLI,"[72.812903, 21.234604]",Point
2242,7ec3d577-2f35-48a0-8293-e343f1c63e15,FATAKDAWADI,"[72.813396, 21.212893]",Point
2243,7ec3d577-2f35-48a0-8293-e343f1c63e15,BHARI TEMPLE,"[72.811117, 21.215807]",Point
2244,7ec3d577-2f35-48a0-8293-e343f1c63e15,SURYA DARSHAN SOCIETY,"[72.809302, 21.218653]",Point
2246,7ec3d577-2f35-48a0-8293-e343f1c63e15,D MART,"[72.7931, 21.1951]",Point
2247,7ec3d577-2f35-48a0-8293-e343f1c63e15,SHUKAN SKY APARTMENT,"[72.80576, 21.23157]",Point
2245,7ec3d577-2f35-48a0-8293-e343f1c63e15,PREMANAND GARDEN SMC,"[72.807896, 21.221414]",Point
2258,7ec3d577-2f35-48a0-8293-e343f1c63e15,KATARGAM DARWAJA,"[72.82726, 21.211594]",Point
2259,7ec3d577-2f35-48a0-8293-e343f1c63e15,BALASHRAM CHAR RASTA,"[72.832289, 21.219044]",Point
2260,7ec3d577-2f35-48a0-8293-e343f1c63e15,ALKAPURI CIRCLE,"[72.84099, 21.219437]",Point
2261,7ec3d577-2f35-48a0-8293-e343f1c63e15,SUMUL DAIRY,"[72.840597, 21.216607]",Point
2262,7ec3d577-2f35-48a0-8293-e343f1c63e15,I.C. GANDHI SCHOOL,"[72.839985, 21.213449]",Point
2263,7ec3d577-2f35-48a0-8293-e343f1c63e15,RAILWAY PARCEL OFFICE,"[72.839779, 21.208747]",Point
2264,7ec3d577-2f35-48a0-8293-e343f1c63e15,V.N GODHANI SCHOOL,"[72.834308, 21.220615]",Point
2269,7ec3d577-2f35-48a0-8293-e343f1c63e15,SHARDA VIDHYA MANDIR,"[72.819416, 21.184032]",Point
2270,7ec3d577-2f35-48a0-8293-e343f1c63e15,SUMAN DARSHAN,"[72.808139, 21.223193]",Point
2273,7ec3d577-2f35-48a0-8293-e343f1c63e15,VENUS ESTATE,"[72.836334, 21.213216]",Point
2301,7ec3d577-2f35-48a0-8293-e343f1c63e15,LAMBE HANUMAN TEMPLE,"[72.842799, 21.204348]",Point
2303,7ec3d577-2f35-48a0-8293-e343f1c63e15,VASANT BIKHA NI WADI,"[72.849152, 21.20584]",Point
2305,7ec3d577-2f35-48a0-8293-e343f1c63e15,LAABHESHWAR CHOWK,"[72.856621, 21.210016]",Point
2306,7ec3d577-2f35-48a0-8293-e343f1c63e15,GHANSHYAM NAGAR,"[72.860779, 21.210737]",Point
2307,7ec3d577-2f35-48a0-8293-e343f1c63e15,SANTOSH NAGAR,"[72.863913, 21.211369]",Point
2271,7ec3d577-2f35-48a0-8293-e343f1c63e15,JALSA THEATRE,"[72.837858, 21.221005]",Point
2272,7ec3d577-2f35-48a0-8293-e343f1c63e15,SAGAR INDUSTRIAL ESTATE,"[72.836461, 21.216717]",Point
2274,7ec3d577-2f35-48a0-8293-e343f1c63e15,PARIN GEMS,"[72.831827, 21.2119]",Point
2302,7ec3d577-2f35-48a0-8293-e343f1c63e15,J.B. DIAMOND,"[72.845777, 21.205365]",Point
2304,7ec3d577-2f35-48a0-8293-e343f1c63e15,MATAWADI CHOWK,"[72.85296, 21.208693]",Point
2308,7ec3d577-2f35-48a0-8293-e343f1c63e15,PODDAR ARCADE VARACHHA,"[72.84419, 21.207048]",Point
2315,7ec3d577-2f35-48a0-8293-e343f1c63e15,KHAADI MOHALLA SHAALA,"[72.849249, 21.201292]",Point
2314,7ec3d577-2f35-48a0-8293-e343f1c63e15,BHAGAT SINGH GARDEN,"[72.84648, 21.200457]",Point
2318,7ec3d577-2f35-48a0-8293-e343f1c63e15,RENUKA BHAVAN,"[72.855684, 21.199313]",Point
2316,7ec3d577-2f35-48a0-8293-e343f1c63e15,BOMBAY MARKET,"[72.847814, 21.19787]",Point
2317,7ec3d577-2f35-48a0-8293-e343f1c63e15,NANDAALAY HAVELI,"[72.852988, 21.198502]",Point
2319,7ec3d577-2f35-48a0-8293-e343f1c63e15,ARCHANA CHAR RASTA,"[72.859456, 21.200192]",Point
2322,7ec3d577-2f35-48a0-8293-e343f1c63e15,ASHWANIKUMAR ROAD,"[72.840947, 21.208401]",Point
2323,7ec3d577-2f35-48a0-8293-e343f1c63e15,VIDHI BHAVAN,"[72.842359, 21.210963]",Point
2324,7ec3d577-2f35-48a0-8293-e343f1c63e15,UMIYA CHOWK,"[72.843883, 21.212792]",Point
2339,7ec3d577-2f35-48a0-8293-e343f1c63e15,J.T. NAGAR,"[72.860015, 21.198184]",Point
2325,7ec3d577-2f35-48a0-8293-e343f1c63e15,LEPROSY HOSPITAL,"[72.846275, 21.216273]",Point
2326,7ec3d577-2f35-48a0-8293-e343f1c63e15,PATEL NAGAR,"[72.848391, 21.218845]",Point
2340,7ec3d577-2f35-48a0-8293-e343f1c63e15,RAGHUVIR BUSINESS HUB,"[72.860681, 21.194159]",Point
2341,7ec3d577-2f35-48a0-8293-e343f1c63e15,AAI MATA ROAD,"[72.860429, 21.192419]",Point
2359,7ec3d577-2f35-48a0-8293-e343f1c63e15,BHAVANI CIRCLE,"[72.847382, 21.217968]",Point
2362,7ec3d577-2f35-48a0-8293-e343f1c63e15,RAMNAGAR SOCIETY,"[72.850922, 21.217917]",Point
2363,7ec3d577-2f35-48a0-8293-e343f1c63e15,SARDAR SMRUTI BHAVAN,"[72.851111, 21.21482]",Point
2364,7ec3d577-2f35-48a0-8293-e343f1c63e15,SARDAR CHOWK,"[72.85127, 21.211592]",Point
2401,7ec3d577-2f35-48a0-8293-e343f1c63e15,SAI DARSHAN MARKET,"[72.843074, 21.187432]",Point
2402,7ec3d577-2f35-48a0-8293-e343f1c63e15,PANCHSHEEL NAGAR ANJANA,"[72.846082, 21.186405]",Point
2403,7ec3d577-2f35-48a0-8293-e343f1c63e15,NAGAR PRATHMIK SCHOOL ANJANA,"[72.85014, 21.185065]",Point
2404,7ec3d577-2f35-48a0-8293-e343f1c63e15,HARI DARSHAN SOCIETY GODADARA,"[72.870825, 21.167428]",Point
2405,7ec3d577-2f35-48a0-8293-e343f1c63e15,ANJANA HEALTH CENTRE,"[72.853155, 21.183974]",Point
2406,7ec3d577-2f35-48a0-8293-e343f1c63e15,AZAD CHOWK,"[72.854909, 21.181728]",Point
2407,7ec3d577-2f35-48a0-8293-e343f1c63e15,MITHIKHADI WARD OFFICE,"[72.855622, 21.179035]",Point
2408,7ec3d577-2f35-48a0-8293-e343f1c63e15,LIMBAYAT HEALTH CENTRE,"[72.856507, 21.176004]",Point
2409,7ec3d577-2f35-48a0-8293-e343f1c63e15,SHIVAJI NAGAR,"[72.858787, 21.170674]",Point
2410,7ec3d577-2f35-48a0-8293-e343f1c63e15,NILGIRI CIRCLE,"[72.859183, 21.168413]",Point
2411,7ec3d577-2f35-48a0-8293-e343f1c63e15,SHREE NATHJI SOCIETY GODADARA,"[72.863587, 21.167398]",Point
2412,7ec3d577-2f35-48a0-8293-e343f1c63e15,RAM NAGAR GODADARA,"[72.868969, 21.167485]",Point
2413,7ec3d577-2f35-48a0-8293-e343f1c63e15,MODEL TOWN DUMBHAL,"[72.86086, 21.187929]",Point
2414,7ec3d577-2f35-48a0-8293-e343f1c63e15,NEMINATH NAGAR DUMBHAL,"[72.862831, 21.186053]",Point
2415,7ec3d577-2f35-48a0-8293-e343f1c63e15,VIDHATA TOWNSHIP PARVAT,"[72.864251, 21.183967]",Point
2416,7ec3d577-2f35-48a0-8293-e343f1c63e15,PARVAT GAM,"[72.866743, 21.180797]",Point
2417,7ec3d577-2f35-48a0-8293-e343f1c63e15,SILICON FLATS PARVAT,"[72.868176, 21.177574]",Point
2420,7ec3d577-2f35-48a0-8293-e343f1c63e15,SAHAJANAND SOCIETY LIMBAYAT,"[72.865272, 21.17479]",Point
2419,7ec3d577-2f35-48a0-8293-e343f1c63e15,SANJAY NAGAR LIMBAYAT,"[72.86235, 21.172015]",Point
2421,7ec3d577-2f35-48a0-8293-e343f1c63e15,GODADRA CANAL JUNCTION,"[72.869213, 21.175016]",Point
2422,7ec3d577-2f35-48a0-8293-e343f1c63e15,JANTA NAGAR ROAD,"[72.855789, 21.165286]",Point
2438,7ec3d577-2f35-48a0-8293-e343f1c63e15,JIGNESHNAGAR GODADARA,"[72.87066, 21.165409]",Point
2443,7ec3d577-2f35-48a0-8293-e343f1c63e15,S.M.C. SANKUL,"[72.8581, 21.1608]",Point
2437,7ec3d577-2f35-48a0-8293-e343f1c63e15,MANGAL PANDEY HALL GODADARA,"[72.870658, 21.166307]",Point
2439,7ec3d577-2f35-48a0-8293-e343f1c63e15,DUMBHAL FIRE STATION,"[72.861545, 21.184353]",Point
2440,7ec3d577-2f35-48a0-8293-e343f1c63e15,NARAYAN INDUSTRIES LIMBAYAT,"[72.861271, 21.179808]",Point
2441,7ec3d577-2f35-48a0-8293-e343f1c63e15,NAGESHWAR TEMPLE,"[72.861606, 21.175757]",Point
2451,7ec3d577-2f35-48a0-8293-e343f1c63e15,HALPATI COLONY,"[72.839003, 21.18391]",Point
2452,7ec3d577-2f35-48a0-8293-e343f1c63e15,BHATHENA CANAL JUNCTION,"[72.841079, 21.181955]",Point
2454,7ec3d577-2f35-48a0-8293-e343f1c63e15,KHODIYARNAGAR,"[72.845776, 21.177614]",Point
2455,7ec3d577-2f35-48a0-8293-e343f1c63e15,SANJAY NAGAR CIRCLE,"[72.860762, 21.169985]",Point
2456,7ec3d577-2f35-48a0-8293-e343f1c63e15,SMC WARD OFFICE LIMBAYAT,"[72.857522, 21.165783]",Point
2444,7ec3d577-2f35-48a0-8293-e343f1c63e15,UMIYA NAGAR,"[72.8608, 21.1592]",Point
2445,7ec3d577-2f35-48a0-8293-e343f1c63e15,LAXMINAGAR SOCIETY,"[72.868506, 21.154829]",Point
2453,7ec3d577-2f35-48a0-8293-e343f1c63e15,SIDDHI VINAYAK TEMPLE,"[72.843331, 21.179912]",Point
2501,7ec3d577-2f35-48a0-8293-e343f1c63e15,KHATODARA WADI,"[72.8252, 21.178195]",Point
2502,7ec3d577-2f35-48a0-8293-e343f1c63e15,KHATODARA GIDC,"[72.826497, 21.175301]",Point
2503,7ec3d577-2f35-48a0-8293-e343f1c63e15,SOSYO CIRCLE,"[72.826962, 21.171035]",Point
2505,7ec3d577-2f35-48a0-8293-e343f1c63e15,SICKON CIRCLE,"[72.830482, 21.163724]",Point
2504,7ec3d577-2f35-48a0-8293-e343f1c63e15,GANDHI KUTIR,"[72.827824, 21.167864]",Point
2506,7ec3d577-2f35-48a0-8293-e343f1c63e15,ASHAPURA MATA MANDIR,"[72.831081, 21.161368]",Point
2507,7ec3d577-2f35-48a0-8293-e343f1c63e15,UMABHAVAN,"[72.831814, 21.158035]",Point
2508,7ec3d577-2f35-48a0-8293-e343f1c63e15,VISHNU NAGAR,"[72.832382, 21.155192]",Point
2509,7ec3d577-2f35-48a0-8293-e343f1c63e15,PIYUSH COMPLEX,"[72.833124, 21.151485]",Point
2510,7ec3d577-2f35-48a0-8293-e343f1c63e15,SMC SOUTH ZONE OFFICE,"[72.836907, 21.172178]",Point
2511,7ec3d577-2f35-48a0-8293-e343f1c63e15,JHANSI KI RANI GARDEN,"[72.837463, 21.169393]",Point
2512,7ec3d577-2f35-48a0-8293-e343f1c63e15,GAYATRI SOCIETY,"[72.838384, 21.166385]",Point
2513,7ec3d577-2f35-48a0-8293-e343f1c63e15,VEER SAVARKAR CIRCLE,"[72.839234, 21.160416]",Point
2514,7ec3d577-2f35-48a0-8293-e343f1c63e15,SHIV BHAKTI APARTMENT,"[72.8399, 21.155942]",Point
2515,7ec3d577-2f35-48a0-8293-e343f1c63e15,SMC COMMUNITY HALL UDHANA,"[72.840449, 21.152412]",Point
2516,7ec3d577-2f35-48a0-8293-e343f1c63e15,UDHANA STATION ROAD,"[72.851241, 21.168447]",Point
2553,7ec3d577-2f35-48a0-8293-e343f1c63e15,ASHANAGAR SOIETY,"[72.838446, 21.16293]",Point
2556,7ec3d577-2f35-48a0-8293-e343f1c63e15,LAXMINAGAR,"[72.846489, 21.166814]",Point
2557,7ec3d577-2f35-48a0-8293-e343f1c63e15,UDHANA UDHYOG NAGAR,"[72.849311, 21.165898]",Point
2558,7ec3d577-2f35-48a0-8293-e343f1c63e15,UDHANA ROAD NO.6 JUNCTION,"[72.849628, 21.166023]",Point
2555,7ec3d577-2f35-48a0-8293-e343f1c63e15,MASTANNAGAR,"[72.841829, 21.168728]",Point
2559,7ec3d577-2f35-48a0-8293-e343f1c63e15,ROAD NO. 3 UDHANA UDHYOG NAGAR CHAR RASTA,"[72.848938, 21.168906]",Point
2560,7ec3d577-2f35-48a0-8293-e343f1c63e15,UDHANA GIDC ROAD NO.3,"[72.848399, 21.170854]",Point
2561,7ec3d577-2f35-48a0-8293-e343f1c63e15,UDHANA GIDC MAHATMA GANDHI ROAD,"[72.847917, 21.173595]",Point
2562,7ec3d577-2f35-48a0-8293-e343f1c63e15,L.N. PARK SOCIETY,"[72.847586, 21.174822]",Point
2563,7ec3d577-2f35-48a0-8293-e343f1c63e15,KHATODARA POLICE STATION,"[72.832016, 21.176181]",Point
2564,7ec3d577-2f35-48a0-8293-e343f1c63e15,KHATODARA WATER WORKS,"[72.829137, 21.174249]",Point
2565,7ec3d577-2f35-48a0-8293-e343f1c63e15,UDHANA RAILWAY STATION,"[72.850415, 21.171792]",Point
2601,7ec3d577-2f35-48a0-8293-e343f1c63e15,VANITA VISHRAM,"[72.809415, 21.18513]",Point
2602,7ec3d577-2f35-48a0-8293-e343f1c63e15,JAWAHARLAL NEHRU GARDEN,"[72.806663, 21.183899]",Point
2603,7ec3d577-2f35-48a0-8293-e343f1c63e15,POLICE COMMISSIONER OFFICE,"[72.803765, 21.182306]",Point
2604,7ec3d577-2f35-48a0-8293-e343f1c63e15,CITY CIVIC CENTRE,"[72.801423, 21.180388]",Point
2605,7ec3d577-2f35-48a0-8293-e343f1c63e15,SURAT DISTRICT COURT,"[72.798632, 21.178579]",Point
2606,7ec3d577-2f35-48a0-8293-e343f1c63e15,PARLE POINT,"[72.794619, 21.175052]",Point
2607,7ec3d577-2f35-48a0-8293-e343f1c63e15,JAANI FARSAAN,"[72.792611, 21.172604]",Point
2608,7ec3d577-2f35-48a0-8293-e343f1c63e15,SUSHRUT HOSPITAL,"[72.787579, 21.16948]",Point
2609,7ec3d577-2f35-48a0-8293-e343f1c63e15,ICCHANATH MAHADEV TEMPLE,"[72.786277, 21.168142]",Point
2610,7ec3d577-2f35-48a0-8293-e343f1c63e15,SHRUNGAR SOCIETY CITY LIGHT ROAD,"[72.793559, 21.172504]",Point
2611,7ec3d577-2f35-48a0-8293-e343f1c63e15,SCIENCE CENTRE CITY LIGHT ROAD,"[72.795201, 21.169522]",Point
2612,7ec3d577-2f35-48a0-8293-e343f1c63e15,PREM PRAKRUTI CHOWK CITY LIGHT ROAD,"[72.795571, 21.167232]",Point
2613,7ec3d577-2f35-48a0-8293-e343f1c63e15,SIDDHARTH COM. JUNCTION CITY LIGHT ROAD,"[72.796493, 21.163187]",Point
2615,7ec3d577-2f35-48a0-8293-e343f1c63e15,PARLE POINT GHOD DOD ROAD,"[72.7949, 21.174079]",Point
2616,7ec3d577-2f35-48a0-8293-e343f1c63e15,GUJARATI SCHOOL GHOD DOD ROAD,"[72.798466, 21.174414]",Point
2617,7ec3d577-2f35-48a0-8293-e343f1c63e15,TRIBHUVAN COMPLEX GHOD DOD ROAD,"[72.80153, 21.1748]",Point
2618,7ec3d577-2f35-48a0-8293-e343f1c63e15,RANGEELA PARK GHOD DOD ROAD,"[72.804849, 21.175054]",Point
2619,7ec3d577-2f35-48a0-8293-e343f1c63e15,ST.XAVIER'S HIGH SCHOOL GHOD DOD ROAD,"[72.810183, 21.175716]",Point
2620,7ec3d577-2f35-48a0-8293-e343f1c63e15,KARIMABAD SOCIETY GHOD DOD ROAD,"[72.812167, 21.175785]",Point
2621,7ec3d577-2f35-48a0-8293-e343f1c63e15,PANJARA POL GHOD DOD ROAD,"[72.815948, 21.176191]",Point
2622,7ec3d577-2f35-48a0-8293-e343f1c63e15,POLICE LINES,"[72.803582, 21.18016]",Point
2623,7ec3d577-2f35-48a0-8293-e343f1c63e15,ATHWA PUMPING STATION,"[72.804426, 21.177914]",Point
2624,7ec3d577-2f35-48a0-8293-e343f1c63e15,NARMAD CENTRAL LIBRARY,"[72.80536, 21.17572]",Point
2625,7ec3d577-2f35-48a0-8293-e343f1c63e15,K.P COMMERCE COLLEGE,"[72.809051, 21.183152]",Point
2626,7ec3d577-2f35-48a0-8293-e343f1c63e15,SEVENTH DAY SCHOOL,"[72.810102, 21.181239]",Point
2627,7ec3d577-2f35-48a0-8293-e343f1c63e15,ADARSH SOCIETY,"[72.811088, 21.178153]",Point
2628,7ec3d577-2f35-48a0-8293-e343f1c63e15,MAJURAGATE CIVIL HOSPITAL,"[72.818545, 21.179057]",Point
2629,7ec3d577-2f35-48a0-8293-e343f1c63e15,INCOME TAX,"[72.819246, 21.175846]",Point
2630,7ec3d577-2f35-48a0-8293-e343f1c63e15,KAPADIA HEALTH CLUB,"[72.81989, 21.172557]",Point
2631,7ec3d577-2f35-48a0-8293-e343f1c63e15,SOSYO CIRCLE UDHANA MAGDALLA ROAD,"[72.82637, 21.171976]",Point
2632,7ec3d577-2f35-48a0-8293-e343f1c63e15,SOMNATH SOCIETY UDHANA MAGDALLA ROAD,"[72.823982, 21.170098]",Point
2633,7ec3d577-2f35-48a0-8293-e343f1c63e15,NAVJIVAN CIRCLE UDHANA MAGDALLA ROAD,"[72.820285, 21.167256]",Point
2634,7ec3d577-2f35-48a0-8293-e343f1c63e15,GANDHIKUTIR JUNCTION UDHANA MAGDALLA ROAD,"[72.818035, 21.165403]",Point
2635,7ec3d577-2f35-48a0-8293-e343f1c63e15,ISHWAR NAGAR UDHANA MAGDALLA ROAD,"[72.815766, 21.164227]",Point
2636,7ec3d577-2f35-48a0-8293-e343f1c63e15,BHATAR FLYOVER UDHANA MAGDALLA ROAD,"[72.811182, 21.162847]",Point
2637,7ec3d577-2f35-48a0-8293-e343f1c63e15,VISHAL SOCIETY UDHANA MAGDALLA ROAD,"[72.807271, 21.16206]",Point
2638,7ec3d577-2f35-48a0-8293-e343f1c63e15,BRIEADLINER CIRCLE UDHANA MAGDALLA ROAD,"[72.804607, 21.161565]",Point
2639,7ec3d577-2f35-48a0-8293-e343f1c63e15,CHANDRAMANI SOCIETY UDHANA MAGDALLA ROAD,"[72.79893, 21.160549]",Point
2640,7ec3d577-2f35-48a0-8293-e343f1c63e15,RUPALI CANAL JUNCTION BHATAR ROAD,"[72.815427, 21.16984]",Point
2641,7ec3d577-2f35-48a0-8293-e343f1c63e15,UMA BHAVAN BHATAR ROAD,"[72.814428, 21.167728]",Point
2642,7ec3d577-2f35-48a0-8293-e343f1c63e15,ATOP NAGAR BHATAR ROAD,"[72.813381, 21.165445]",Point
2643,7ec3d577-2f35-48a0-8293-e343f1c63e15,I.G DESAI SCHOOL ALTHAN ROAD,"[72.811495, 21.161524]",Point
2644,7ec3d577-2f35-48a0-8293-e343f1c63e15,ALTHAN TENAMENT,"[72.810355, 21.159731]",Point
2645,7ec3d577-2f35-48a0-8293-e343f1c63e15,KAPADIA WADI ALTHAN ROAD,"[72.809171, 21.155462]",Point
2646,7ec3d577-2f35-48a0-8293-e343f1c63e15,SHAYONA PARK ALTHAN ROAD,"[72.808505, 21.153576]",Point
2647,7ec3d577-2f35-48a0-8293-e343f1c63e15,SOHAM CIRCLE,"[72.80696, 21.150943]",Point
2648,7ec3d577-2f35-48a0-8293-e343f1c63e15,MAJURA GATE FIRE STATION,"[72.818234, 21.175789]",Point
2649,7ec3d577-2f35-48a0-8293-e343f1c63e15,IOC COLONY SUBHASH NAGAR,"[72.817176, 21.173511]",Point
2650,7ec3d577-2f35-48a0-8293-e343f1c63e15,RAJ EMPIRE MULTIPLEX,"[72.816335, 21.171619]",Point
2680,7ec3d577-2f35-48a0-8293-e343f1c63e15,UMRA FOOD PARK,"[72.784447, 21.168657]",Point
2684,7ec3d577-2f35-48a0-8293-e343f1c63e15,GIRIDHARDWAR SOC ALTHAN CANAL ROAD,"[72.803536, 21.159404]",Point
2685,7ec3d577-2f35-48a0-8293-e343f1c63e15,INDRALOK BUNGLOW ALTHAN CANAL ROAD,"[72.803765, 21.156916]",Point
2686,7ec3d577-2f35-48a0-8293-e343f1c63e15,CHINAGATE ROAD ALTHAN CANAL ROAD,"[72.804042, 21.154347]",Point
2687,7ec3d577-2f35-48a0-8293-e343f1c63e15,ALTHAN COMMUNITY HALL,"[72.805435, 21.152594]",Point
2688,7ec3d577-2f35-48a0-8293-e343f1c63e15,V.T CHOKSI COLLEGE,"[72.796495, 21.17665]",Point
2689,7ec3d577-2f35-48a0-8293-e343f1c63e15,SARGAM SHOPPING CENTRE,"[72.790721, 21.171504]",Point
2690,7ec3d577-2f35-48a0-8293-e343f1c63e15,SAROJINI NAIDU GARDEN,"[72.782146, 21.171602]",Point
2691,7ec3d577-2f35-48a0-8293-e343f1c63e15,UMRA HEALTH CENTRE,"[72.779688, 21.171952]",Point
2692,7ec3d577-2f35-48a0-8293-e343f1c63e15,MIRA NAGAR SOCIETY,"[72.811235, 21.174575]",Point
2693,7ec3d577-2f35-48a0-8293-e343f1c63e15,JAMNA NAGAR SOCIETY,"[72.811462, 21.172345]",Point
2694,7ec3d577-2f35-48a0-8293-e343f1c63e15,TRIMURTI APARTMENT,"[72.811667, 21.170111]",Point
2695,7ec3d577-2f35-48a0-8293-e343f1c63e15,VIVEKANAND GARDEN,"[72.811787, 21.169161]",Point
2696,7ec3d577-2f35-48a0-8293-e343f1c63e15,JIVKOR NAGAR BHATAR,"[72.812133, 21.166737]",Point
2697,7ec3d577-2f35-48a0-8293-e343f1c63e15,SANJIVANI CIRCLE BHATAR,"[72.812595, 21.163576]",Point
2702,7ec3d577-2f35-48a0-8293-e343f1c63e15,JILANI COMPLEX,"[72.807537, 21.204622]",Point
2703,7ec3d577-2f35-48a0-8293-e343f1c63e15,ALFESANI SCHOOL,"[72.803636, 21.209815]",Point
2701,7ec3d577-2f35-48a0-8293-e343f1c63e15,SIDDIQUI SQUARE,"[72.808469, 21.201501]",Point
2704,7ec3d577-2f35-48a0-8293-e343f1c63e15,MADNI SOCIETY,"[72.801937, 21.21215]",Point
2705,7ec3d577-2f35-48a0-8293-e343f1c63e15,AL AMIN,"[72.800282, 21.214355]",Point
2706,7ec3d577-2f35-48a0-8293-e343f1c63e15,HAMZA APARTMENT,"[72.805647, 21.207087]",Point
2707,7ec3d577-2f35-48a0-8293-e343f1c63e15,ROYAL HERITAGE,"[72.797471, 21.215377]",Point
2708,7ec3d577-2f35-48a0-8293-e343f1c63e15,ARYA SAMAJ MARG,"[72.795265, 21.216303]",Point
2709,7ec3d577-2f35-48a0-8293-e343f1c63e15,SUBHASH GARDEN,"[72.787729, 21.225146]",Point
2710,7ec3d577-2f35-48a0-8293-e343f1c63e15,SUNDARVAN ROW HOUSE,"[72.784322, 21.227069]",Point
2711,7ec3d577-2f35-48a0-8293-e343f1c63e15,SAMDRASTI PARK,"[72.784322, 21.227069]",Point
2712,7ec3d577-2f35-48a0-8293-e343f1c63e15,MORA BHAGAL,"[72.788897, 21.222164]",Point
2713,7ec3d577-2f35-48a0-8293-e343f1c63e15,SUMAN NURSERY,"[72.784872, 21.222283]",Point
2714,7ec3d577-2f35-48a0-8293-e343f1c63e15,S.M.C. BOTANICAL GARDEN,"[72.7821, 21.221742]",Point
2715,7ec3d577-2f35-48a0-8293-e343f1c63e15,SANJAY SOCIETY,"[72.792013, 21.229827]",Point
2716,7ec3d577-2f35-48a0-8293-e343f1c63e15,HANUMAN TEKARI,"[72.793586, 21.226583]",Point
2717,7ec3d577-2f35-48a0-8293-e343f1c63e15,LOKMANYA SCHOOL RANDER,"[72.792138, 21.224893]",Point
2718,7ec3d577-2f35-48a0-8293-e343f1c63e15,SMC STAFF QUARTERS,"[72.77788, 21.218366]",Point
2719,7ec3d577-2f35-48a0-8293-e343f1c63e15,TAPASH NAGAR,"[72.777518, 21.215125]",Point
2722,7ec3d577-2f35-48a0-8293-e343f1c63e15,ROYAL PLATINUM,"[72.77647, 21.205432]",Point
2721,7ec3d577-2f35-48a0-8293-e343f1c63e15,MINI VIRPUR TEMPLE,"[72.77688, 21.209135]",Point
2723,7ec3d577-2f35-48a0-8293-e343f1c63e15,SHANTVAN ROW HOUSE,"[72.776896, 21.203253]",Point
2730,7ec3d577-2f35-48a0-8293-e343f1c63e15,SHAKTI NIKETAN MANDIR,"[72.807109, 21.196062]",Point
2731,7ec3d577-2f35-48a0-8293-e343f1c63e15,CORPORATION SCHOOL,"[72.80962, 21.195266]",Point
2732,7ec3d577-2f35-48a0-8293-e343f1c63e15,PARAM ROW HOUSE,"[72.807773, 21.192876]",Point
2733,7ec3d577-2f35-48a0-8293-e343f1c63e15,BAPS SWAMINARAYAN SANSTHA,"[72.805203, 21.190259]",Point
2734,7ec3d577-2f35-48a0-8293-e343f1c63e15,BHAGWAN PARK,"[72.802831, 21.188771]",Point
2735,7ec3d577-2f35-48a0-8293-e343f1c63e15,BADRINATH MANDIR,"[72.800463, 21.187336]",Point
2737,7ec3d577-2f35-48a0-8293-e343f1c63e15,JAGDISHCHANDRA BOSE GARDEN,"[72.793529, 21.184574]",Point
2738,7ec3d577-2f35-48a0-8293-e343f1c63e15,STAR BAZAAR,"[72.79279, 21.186033]",Point
2739,7ec3d577-2f35-48a0-8293-e343f1c63e15,ADAJAN GAM,"[72.790392, 21.18801]",Point
2740,7ec3d577-2f35-48a0-8293-e343f1c63e15,TRINITY BUSINESS PARK,"[72.788687, 21.190871]",Point
2741,7ec3d577-2f35-48a0-8293-e343f1c63e15,GREEN AVENUE,"[72.786234, 21.19442]",Point
2742,7ec3d577-2f35-48a0-8293-e343f1c63e15,S.M.C. PERFORMING ART CENTRE,"[72.784233, 21.197495]",Point
2782,7ec3d577-2f35-48a0-8293-e343f1c63e15,VAN BHAVAN,"[72.79317, 21.195151]",Point
2784,7ec3d577-2f35-48a0-8293-e343f1c63e15,SAURABH SOCIETY,"[72.78543, 21.190469]",Point
2783,7ec3d577-2f35-48a0-8293-e343f1c63e15,SHANTI KUNJ,"[72.79049, 21.194794]",Point
2785,7ec3d577-2f35-48a0-8293-e343f1c63e15,SMC PARTY PLOT PAL,"[72.782159, 21.190241]",Point
2790,7ec3d577-2f35-48a0-8293-e343f1c63e15,BAPS HOSPITAL ADAJAN,"[72.79788, 21.189234]",Point
2791,7ec3d577-2f35-48a0-8293-e343f1c63e15,PALANPUR JAKATNAKA CIRCLE,"[72.783015, 21.209823]",Point
2799,7ec3d577-2f35-48a0-8293-e343f1c63e15,ADAJAN GSRTC,"[72.808339, 21.198617]",Point
30,7ec3d577-2f35-48a0-8293-e343f1c63e15,MAKKAIPOOL TERMINAL,"[72.81622, 21.192449]",Point
3701,7ec3d577-2f35-48a0-8293-e343f1c63e15,RANDER NAHER COLONY,"[72.792052, 21.215726]",Point
3702,7ec3d577-2f35-48a0-8293-e343f1c63e15,CHILDREN PARK ADAJAN,"[72.797609, 21.201289]",Point
3703,7ec3d577-2f35-48a0-8293-e343f1c63e15,SHALIDHADRA RESIDENCY,"[72.796243, 21.202843]",Point
3704,7ec3d577-2f35-48a0-8293-e343f1c63e15,TEKRAWALA SCHOOL,"[72.79328, 21.209247]",Point
3705,7ec3d577-2f35-48a0-8293-e343f1c63e15,VICHAR KRANTI CIRCLE,"[72.790379, 21.211218]",Point
3706,7ec3d577-2f35-48a0-8293-e343f1c63e15,HOUSING BOARD PALANPUR,"[72.787871, 21.213066]",Point
3707,7ec3d577-2f35-48a0-8293-e343f1c63e15,AMBIKA NAGAR SOCIETY,"[72.787567, 21.214585]",Point
3708,7ec3d577-2f35-48a0-8293-e343f1c63e15,RAM NAGAR,"[72.787327, 21.217358]",Point
3709,7ec3d577-2f35-48a0-8293-e343f1c63e15,ANAND NAGAR SOCIETY,"[72.784322, 21.227069]",Point
4001,7ec3d577-2f35-48a0-8293-e343f1c63e15,ONGC COLONY BRTS,"[72.751748, 21.13884]",Point
4002,7ec3d577-2f35-48a0-8293-e343f1c63e15,S.M.C. KAPODARA WARD OFFICE BRTS,"[72.870964, 21.21909]",Point
4003,7ec3d577-2f35-48a0-8293-e343f1c63e15,KAPODARA FIRE STATION BRTS,"[72.8748, 21.2207]",Point
4004,7ec3d577-2f35-48a0-8293-e343f1c63e15,NANA VARACHHA VARI GRUH BRTS,"[72.881807, 21.222549]",Point
4005,7ec3d577-2f35-48a0-8293-e343f1c63e15,MAGDALLA GAM BRTS,"[72.755605, 21.14211]",Point
4006,7ec3d577-2f35-48a0-8293-e343f1c63e15,'Y' JUNCTION DUMAS ROAD BRTS,"[72.758009, 21.144225]",Point
4007,7ec3d577-2f35-48a0-8293-e343f1c63e15,'Y' JUNCTION UDHANA MAGDALLA ROAD BRTS,"[72.760959, 21.146091]",Point
4008,7ec3d577-2f35-48a0-8293-e343f1c63e15,MAHARANA PRATAP JUNCTION BRTS,"[72.766445, 21.148377]",Point
4009,7ec3d577-2f35-48a0-8293-e343f1c63e15,S.D. JAIN SCHOOL BRTS,"[72.770814, 21.150221]",Point
4010,7ec3d577-2f35-48a0-8293-e343f1c63e15,J.H. AMBANI SCHOOL BRTS,"[72.775294, 21.152063]",Point
4011,7ec3d577-2f35-48a0-8293-e343f1c63e15,SOMESHWAR JUNCTION BRTS,"[72.779742, 21.153743]",Point
4012,7ec3d577-2f35-48a0-8293-e343f1c63e15,V.N.S.G. UNIVERSITY BRTS,"[72.783131, 21.155067]",Point
4013,7ec3d577-2f35-48a0-8293-e343f1c63e15,V.N.S.G.U. CONVENTION HALL BRTS,"[72.78697, 21.156614]",Point
4014,7ec3d577-2f35-48a0-8293-e343f1c63e15,CENTRE FOR SOCIAL STUDIES BRTS,"[72.790359, 21.157981]",Point
4015,7ec3d577-2f35-48a0-8293-e343f1c63e15,MAGDALLA T JUNCTION BRTS,"[72.76059, 21.147664]",Point
4016,7ec3d577-2f35-48a0-8293-e343f1c63e15,RUNDHNATH MAHADEV MANDIR BRTS,"[72.762949, 21.151539]",Point
4017,7ec3d577-2f35-48a0-8293-e343f1c63e15,GOVERDHAN NATHJI HAVELI BRTS,"[72.765755, 21.155962]",Point
4018,7ec3d577-2f35-48a0-8293-e343f1c63e15,LANCERS ARMY SCHOOL BRTS,"[72.771002, 21.159489]",Point
4019,7ec3d577-2f35-48a0-8293-e343f1c63e15,PIPLOD BRTS,"[72.774646, 21.161427]",Point
4020,7ec3d577-2f35-48a0-8293-e343f1c63e15,KARGIL CHOWK BRTS,"[72.780414, 21.165115]",Point
4021,7ec3d577-2f35-48a0-8293-e343f1c63e15,S.V.N.I.T. BRTS,"[72.784084, 21.167368]",Point
4022,7ec3d577-2f35-48a0-8293-e343f1c63e15,"V.T. PODAR COLLEGE CAMPUS, PANDESARA BRTS","[72.848193, 21.146528]",Point
4023,7ec3d577-2f35-48a0-8293-e343f1c63e15,KAMNATH MAHADEV BRTS,"[72.849825, 21.14062]",Point
4024,7ec3d577-2f35-48a0-8293-e343f1c63e15,NAVIN FLUORINE BRTS,"[72.851768, 21.135811]",Point
4025,7ec3d577-2f35-48a0-8293-e343f1c63e15,BHESTAN NAHER BRTS,"[72.852984, 21.132825]",Point
4026,7ec3d577-2f35-48a0-8293-e343f1c63e15,BHAGWATINAGAR INDUSTRIAL ESTATE BRTS,"[72.854141, 21.129741]",Point
4027,7ec3d577-2f35-48a0-8293-e343f1c63e15,UNN NAKA BRTS,"[72.858031, 21.120004]",Point
4028,7ec3d577-2f35-48a0-8293-e343f1c63e15,UNN INDUSTRIAL ESTATE BRTS,"[72.859686, 21.115826]",Point
4029,7ec3d577-2f35-48a0-8293-e343f1c63e15,UNN CHAR RASTA BRTS,"[72.861162, 21.112103]",Point
4030,7ec3d577-2f35-48a0-8293-e343f1c63e15,GREEN PARK BRTS,"[72.862973, 21.107554]",Point
4031,7ec3d577-2f35-48a0-8293-e343f1c63e15,SACHIN GIDC JUNCTION BRTS,"[72.865027, 21.103452]",Point
4032,7ec3d577-2f35-48a0-8293-e343f1c63e15,MAHARANA PRATAP GARDEN (CHOWPATI) BRTS,"[72.884687, 21.223895]",Point
4033,7ec3d577-2f35-48a0-8293-e343f1c63e15,PURUSHOTTAM NAGAR BRTS,"[72.905706, 21.233469]",Point
4034,7ec3d577-2f35-48a0-8293-e343f1c63e15,SHYAMDHAM MANDIR BRTS,"[72.909657, 21.236996]",Point
4035,7ec3d577-2f35-48a0-8293-e343f1c63e15,SAGWADI BRTS,"[72.9131, 21.2401]",Point
4036,7ec3d577-2f35-48a0-8293-e343f1c63e15,SWAMI NARAYAN MISSION - VALAK GAM BRTS,"[72.916598, 21.243195]",Point
4039,7ec3d577-2f35-48a0-8293-e343f1c63e15,KOSAD HOUSING BOARD BRTS,"[72.849631, 21.252075]",Point
4040,7ec3d577-2f35-48a0-8293-e343f1c63e15,KOSAD DEPOT BRTS,"[72.8476, 21.257428]",Point
4041,7ec3d577-2f35-48a0-8293-e343f1c63e15,KOSAD EWS H1 BRTS,"[72.84924, 21.255518]",Point
4042,7ec3d577-2f35-48a0-8293-e343f1c63e15,KOSAD EWS H2 BRTS,"[72.85406, 21.255512]",Point
4043,7ec3d577-2f35-48a0-8293-e343f1c63e15,VISHWAKARMA JUNCTION BRTS,"[72.870024, 21.194908]",Point
4044,7ec3d577-2f35-48a0-8293-e343f1c63e15,BHAIYA NAGAR BRTS,"[72.874824, 21.197597]",Point
4045,7ec3d577-2f35-48a0-8293-e343f1c63e15,PUNAGAM JUNCTION BRTS,"[72.879115, 21.199796]",Point
4046,7ec3d577-2f35-48a0-8293-e343f1c63e15,PUNA SAROLI JUNCTION BRTS,"[72.88336, 21.20177]",Point
4047,7ec3d577-2f35-48a0-8293-e343f1c63e15,VANMALI JUNCTION (WEST) BRTS,"[72.887957, 21.204225]",Point
4048,7ec3d577-2f35-48a0-8293-e343f1c63e15,VANMALI JUNCTION BRTS,"[72.892337, 21.207236]",Point
4049,7ec3d577-2f35-48a0-8293-e343f1c63e15,SIMADA NAHER JUNCTION BRTS,"[72.896607, 21.210105]",Point
4050,7ec3d577-2f35-48a0-8293-e343f1c63e15,SIMADA JUNCTION BRTS,"[72.896762, 21.213475]",Point
4051,7ec3d577-2f35-48a0-8293-e343f1c63e15,YOGI NAGAR BRTS,"[72.896008, 21.217521]",Point
4052,7ec3d577-2f35-48a0-8293-e343f1c63e15,SWAGAT SOCIETY BRTS,"[72.895554, 21.222252]",Point
4053,7ec3d577-2f35-48a0-8293-e343f1c63e15,S.M.V.S. SWAMINARAYAN TEMPLE BRTS,"[72.895155, 21.22727]",Point
4054,7ec3d577-2f35-48a0-8293-e343f1c63e15,SARTHANA NATURE PARK BRTS,"[72.899562, 21.229727]",Point
4057,7ec3d577-2f35-48a0-8293-e343f1c63e15,UTRAN R.O.B. BRIDGE BRTS,"[72.863284, 21.233142]",Point
4061,7ec3d577-2f35-48a0-8293-e343f1c63e15,PALIWAL BRTS,"[72.862073, 21.091347]",Point
4062,7ec3d577-2f35-48a0-8293-e343f1c63e15,SACHIN GIDC NAKA,"[72.859469, 21.082313]",Point
4063,7ec3d577-2f35-48a0-8293-e343f1c63e15,KOSAD FIRE STATION BRTS,"[72.851312, 21.247589]",Point
4064,7ec3d577-2f35-48a0-8293-e343f1c63e15,SHREE SWAMI DAYANAND SARASWATI BRIDGE,"[72.866305, 21.230357]",Point
4065,7ec3d577-2f35-48a0-8293-e343f1c63e15,NANA VARACHHA POLICE STATION BRTS,"[72.889156, 21.225934]",Point
4201,7ec3d577-2f35-48a0-8293-e343f1c63e15,DABHOLI GAAM,"[72.80363, 21.23418]",Point
4202,7ec3d577-2f35-48a0-8293-e343f1c63e15,SILVERSTONE RESIDENCY,"[72.811962, 21.23701]",Point
4203,7ec3d577-2f35-48a0-8293-e343f1c63e15,OM HERITAGE DABHOLI,"[72.81207, 21.23869]",Point
4204,7ec3d577-2f35-48a0-8293-e343f1c63e15,SWARAJ HEIGHTS DABHOLI,"[72.809768, 21.241096]",Point
4205,7ec3d577-2f35-48a0-8293-e343f1c63e15,DABHOLI GAAM APPROACH,"[72.807822, 21.236603]",Point
4206,7ec3d577-2f35-48a0-8293-e343f1c63e15,SANSKRUT RESIDENCY,"[72.857739, 21.249391]",Point
4207,7ec3d577-2f35-48a0-8293-e343f1c63e15,SWEET HOME SOCIETY,"[72.858704, 21.24999]",Point
4213,7ec3d577-2f35-48a0-8293-e343f1c63e15,SWAMI NARAYAN GURUKUL,"[72.819504, 21.244997]",Point
4208,7ec3d577-2f35-48a0-8293-e343f1c63e15,LAKE VIEW RESIDENCY KOSAD,"[72.858885, 21.253455]",Point
4211,7ec3d577-2f35-48a0-8293-e343f1c63e15,S M C HEALTH CLUB,"[72.820295, 21.237745]",Point
4212,7ec3d577-2f35-48a0-8293-e343f1c63e15,NANI VED,"[72.819647, 21.241916]",Point
4214,7ec3d577-2f35-48a0-8293-e343f1c63e15,MOTI VED DARGAH,"[72.819311, 21.247844]",Point
4215,7ec3d577-2f35-48a0-8293-e343f1c63e15,MOTI VED,"[72.813321, 21.247717]",Point
4227,7ec3d577-2f35-48a0-8293-e343f1c63e15,SARDAR COMPLEX,"[72.82513, 21.237813]",Point
4228,7ec3d577-2f35-48a0-8293-e343f1c63e15,KRISHNAKUNJ SOCIETY,"[72.825483, 21.240117]",Point
4229,7ec3d577-2f35-48a0-8293-e343f1c63e15,KRISHNA RESIDENCY,"[72.828656, 21.240693]",Point
4230,7ec3d577-2f35-48a0-8293-e343f1c63e15,TAPI SOCIETY,"[72.831477, 21.239895]",Point
4231,7ec3d577-2f35-48a0-8293-e343f1c63e15,LAKSHIMIKANT ASHRAM,"[72.832049, 21.23751]",Point
4232,7ec3d577-2f35-48a0-8293-e343f1c63e15,AKHAND ANAND PARK SOCIETY,"[72.828096, 21.236015]",Point
4233,7ec3d577-2f35-48a0-8293-e343f1c63e15,ARIHANT PARK,"[72.84661, 21.241118]",Point
4237,7ec3d577-2f35-48a0-8293-e343f1c63e15,SITA RAM CHOWK,"[72.838758, 21.254216]",Point
4238,7ec3d577-2f35-48a0-8293-e343f1c63e15,CHAAPRA BHAATHA,"[72.8396, 21.252201]",Point
4239,7ec3d577-2f35-48a0-8293-e343f1c63e15,SHREEJI ROW HOUSE CHAAPRA BHAATHA,"[72.842549, 21.250464]",Point
4240,7ec3d577-2f35-48a0-8293-e343f1c63e15,GANESH NAGAR,"[72.843042, 21.246497]",Point
4241,7ec3d577-2f35-48a0-8293-e343f1c63e15,SWAMI NARAYAN MANDIR (BAPS),"[72.84431, 21.244538]",Point
4242,7ec3d577-2f35-48a0-8293-e343f1c63e15,AMROLI CHAR RASTA,"[72.849492, 21.239249]",Point
4243,7ec3d577-2f35-48a0-8293-e343f1c63e15,AMROLI GAAM,"[72.851373, 21.233876]",Point
4244,7ec3d577-2f35-48a0-8293-e343f1c63e15,R V PATEL VIDHYALAY,"[72.851978, 21.233265]",Point
4245,7ec3d577-2f35-48a0-8293-e343f1c63e15,UTRAN LAKE GARDEN,"[72.85648, 21.23088]",Point
4246,7ec3d577-2f35-48a0-8293-e343f1c63e15,OMKAR ROW HOUSE,"[72.857503, 21.229037]",Point
4247,7ec3d577-2f35-48a0-8293-e343f1c63e15,COMMUNITY HALL UTRAN,"[72.860671, 21.228519]",Point
4248,7ec3d577-2f35-48a0-8293-e343f1c63e15,SILVER PALACE,"[72.863486, 21.22991]",Point
4249,7ec3d577-2f35-48a0-8293-e343f1c63e15,UTRAN POWER HOUSE,"[72.866919, 21.23171]",Point
4250,7ec3d577-2f35-48a0-8293-e343f1c63e15,SAMATA NAGAR,"[72.871361, 21.232642]",Point
4251,7ec3d577-2f35-48a0-8293-e343f1c63e15,MOTA VARACHHA PUMPING STATION,"[72.873595, 21.2351]",Point
4252,7ec3d577-2f35-48a0-8293-e343f1c63e15,AMROLI CROSS ROAD,"[72.851484, 21.241503]",Point
4253,7ec3d577-2f35-48a0-8293-e343f1c63e15,KOSAD TALAAV,"[72.858869, 21.254337]",Point
4254,7ec3d577-2f35-48a0-8293-e343f1c63e15,MAHAVIR HEIGHTS,"[72.854982, 21.241134]",Point
4255,7ec3d577-2f35-48a0-8293-e343f1c63e15,MAHAVIR DHAM 2,"[72.854406, 21.238708]",Point
4257,7ec3d577-2f35-48a0-8293-e343f1c63e15,GLOBAL RESIDENCY,"[72.845839, 21.262117]",Point
4258,7ec3d577-2f35-48a0-8293-e343f1c63e15,VATSALYA VILLA VARIYAV,"[72.840917, 21.255525]",Point
4259,7ec3d577-2f35-48a0-8293-e343f1c63e15,SMC WATER WORKS KOSAD,"[72.845209, 21.255301]",Point
4260,7ec3d577-2f35-48a0-8293-e343f1c63e15,KOSAD GAM,"[72.862777, 21.254171]",Point
4261,7ec3d577-2f35-48a0-8293-e343f1c63e15,ABHISHEK TOWNSHIP,"[72.855553, 21.244364]",Point
4262,7ec3d577-2f35-48a0-8293-e343f1c63e15,ASHWANIKUMAR SMASHAN GRUH,"[72.848103, 21.226671]",Point
4263,7ec3d577-2f35-48a0-8293-e343f1c63e15,KATAR GAM GIDC,"[72.844989, 21.227528]",Point
4264,7ec3d577-2f35-48a0-8293-e343f1c63e15,Jain Deraasar Amroli,"[72.848508, 21.237544]",Point
4265,7ec3d577-2f35-48a0-8293-e343f1c63e15,SREEPAL NAGAR SOCIETY,"[72.850692, 21.239021]",Point
4266,7ec3d577-2f35-48a0-8293-e343f1c63e15,MAHAVIR DHAAM SOCIETY,"[72.854637, 21.237812]",Point
4267,7ec3d577-2f35-48a0-8293-e343f1c63e15,KRISHNA NAGAR SOCIETY,"[72.856949, 21.236999]",Point
4268,7ec3d577-2f35-48a0-8293-e343f1c63e15,HARI SIDDHI APARTMENT,"[72.858458, 21.239602]",Point
4269,7ec3d577-2f35-48a0-8293-e343f1c63e15,MARUTI DHAM SOCIETY,"[72.859716, 21.242359]",Point
4270,7ec3d577-2f35-48a0-8293-e343f1c63e15,SEVEN STAR RESIDENCY,"[72.861187, 21.245865]",Point
4271,7ec3d577-2f35-48a0-8293-e343f1c63e15,SHAHJANAND APARTMENT,"[72.862416, 21.249015]",Point
4307,7ec3d577-2f35-48a0-8293-e343f1c63e15,ANAND DHARA SOCIETY MOTA VARACHHA,"[72.886058, 21.246867]",Point
4308,7ec3d577-2f35-48a0-8293-e343f1c63e15,RACHANA SOCIETY,"[72.867897, 21.213239]",Point
4309,7ec3d577-2f35-48a0-8293-e343f1c63e15,GOPAL CHOWK,"[72.871164, 21.215107]",Point
4310,7ec3d577-2f35-48a0-8293-e343f1c63e15,SAGAR SOCIETY,"[72.872909, 21.216118]",Point
4311,7ec3d577-2f35-48a0-8293-e343f1c63e15,BSNL OFFICE MAMTA PARK,"[72.87594, 21.217675]",Point
4312,7ec3d577-2f35-48a0-8293-e343f1c63e15,LAXMINAGAR CHOWK,"[72.877374, 21.214628]",Point
4313,7ec3d577-2f35-48a0-8293-e343f1c63e15,V T NAGAR ROAD,"[72.907371, 21.234306]",Point
4314,7ec3d577-2f35-48a0-8293-e343f1c63e15,DIVA FARM,"[72.910482, 21.234208]",Point
4315,7ec3d577-2f35-48a0-8293-e343f1c63e15,N C THAKKAR SCHOOL,"[72.913419, 21.234063]",Point
4316,7ec3d577-2f35-48a0-8293-e343f1c63e15,SHYAM DHAM CHOWK SIMADA,"[72.89006, 21.219787]",Point
4317,7ec3d577-2f35-48a0-8293-e343f1c63e15,SHYAM SUNDAR APARTMENT,"[72.893371, 21.221064]",Point
4318,7ec3d577-2f35-48a0-8293-e343f1c63e15,SIDDHARTH NAGAR SOCIETY,"[72.897894, 21.222618]",Point
4319,7ec3d577-2f35-48a0-8293-e343f1c63e15,CITY CENTRE PUNA GAAM,"[72.88725, 21.215572]",Point
4320,7ec3d577-2f35-48a0-8293-e343f1c63e15,SHIV DHARA HEIGHTS,"[72.884467, 21.214812]",Point
4321,7ec3d577-2f35-48a0-8293-e343f1c63e15,SATYAM RESIDENCY PUNA GAAM,"[72.881542, 21.214186]",Point
4322,7ec3d577-2f35-48a0-8293-e343f1c63e15,SITA NAGAR,"[72.867627, 21.202122]",Point
4324,7ec3d577-2f35-48a0-8293-e343f1c63e15,PUNA TALAV,"[72.873213, 21.205149]",Point
4325,7ec3d577-2f35-48a0-8293-e343f1c63e15,SHAARDA VIDHYA MANDIR,"[72.872635, 21.207521]",Point
4326,7ec3d577-2f35-48a0-8293-e343f1c63e15,KARGIL CHOWK PUNA,"[72.875586, 21.210795]",Point
4327,7ec3d577-2f35-48a0-8293-e343f1c63e15,THAKORDWAR SOCIETY,"[72.877432, 21.211845]",Point
4328,7ec3d577-2f35-48a0-8293-e343f1c63e15,BHAGWATI SOCIETY,"[72.880792, 21.21335]",Point
4329,7ec3d577-2f35-48a0-8293-e343f1c63e15,ANUPAM BUSINESS HUB,"[72.885099, 21.213278]",Point
4330,7ec3d577-2f35-48a0-8293-e343f1c63e15,YOGI CHOWK,"[72.888544, 21.214763]",Point
4331,7ec3d577-2f35-48a0-8293-e343f1c63e15,YODI DARSHAN SOCIETY,"[72.890226, 21.215651]",Point
4332,7ec3d577-2f35-48a0-8293-e343f1c63e15,YOGI NAGAR SOCIETY,"[72.892771, 21.217159]",Point
4333,7ec3d577-2f35-48a0-8293-e343f1c63e15,PATEL PARK,"[72.898498, 21.22007]",Point
4334,7ec3d577-2f35-48a0-8293-e343f1c63e15,SIMADA GAM,"[72.89935, 21.221114]",Point
4335,7ec3d577-2f35-48a0-8293-e343f1c63e15,VRAJVILLA SOCIETY SHYAMNAGAR,"[72.902244, 21.221583]",Point
4336,7ec3d577-2f35-48a0-8293-e343f1c63e15,VRAJ CHOWK,"[72.902657, 21.223941]",Point
4337,7ec3d577-2f35-48a0-8293-e343f1c63e15,SIMADA VARIGRUH,"[72.902127, 21.226124]",Point
4338,7ec3d577-2f35-48a0-8293-e343f1c63e15,SARTHANA NAKA,"[72.901024, 21.229732]",Point
4341,7ec3d577-2f35-48a0-8293-e343f1c63e15,GURUKUM SCHOOL SARTHANA,"[72.899657, 21.223827]",Point
4342,7ec3d577-2f35-48a0-8293-e343f1c63e15,PUNAGAM SARKARI MANDLI,"[72.872907, 21.202993]",Point
4343,7ec3d577-2f35-48a0-8293-e343f1c63e15,BHAGWAN NAGAR SARTHANA,"[72.900913, 21.226035]",Point
4345,7ec3d577-2f35-48a0-8293-e343f1c63e15,BALAJI RESIDENCY,"[72.898445, 21.220163]",Point
4346,7ec3d577-2f35-48a0-8293-e343f1c63e15,PRAMUKHCHHAYA,"[72.884689, 21.208162]",Point
4347,7ec3d577-2f35-48a0-8293-e343f1c63e15,VRUNDAVAN SOCIETY PUNA,"[72.887099, 21.210312]",Point
4348,7ec3d577-2f35-48a0-8293-e343f1c63e15,SAVALIYA CIRCLE,"[72.890377, 21.212686]",Point
4349,7ec3d577-2f35-48a0-8293-e343f1c63e15,RADHE PARK,"[72.893587, 21.213655]",Point
4350,7ec3d577-2f35-48a0-8293-e343f1c63e15,RAGHUKUL RESIDENCY,"[72.896246, 21.214695]",Point
4351,7ec3d577-2f35-48a0-8293-e343f1c63e15,CITY CIVIC CENTRE YOGI,"[72.88534, 21.21334]",Point
4352,7ec3d577-2f35-48a0-8293-e343f1c63e15,MAHAVIR CHOWK,"[72.88725, 21.21845]",Point
4353,7ec3d577-2f35-48a0-8293-e343f1c63e15,VARACHA CHOWPATI F.O.B,"[72.886944, 21.219673]",Point
4354,7ec3d577-2f35-48a0-8293-e343f1c63e15,TAPOVAN CIRCLE,"[72.886501, 21.221376]",Point
4355,7ec3d577-2f35-48a0-8293-e343f1c63e15,SAINATH SOCIETY KAPODARA,"[72.878778, 21.072933]",Point
4356,7ec3d577-2f35-48a0-8293-e343f1c63e15,NILKANTH SOCIETY KAPODARA,"[72.869633, 21.217157]",Point
4357,7ec3d577-2f35-48a0-8293-e343f1c63e15,RASHMI KIRAN APARTMENT,"[72.872797, 21.218085]",Point
4358,7ec3d577-2f35-48a0-8293-e343f1c63e15,SKY LARK COMPLEX KAPODARA,"[72.875449, 21.219009]",Point
4359,7ec3d577-2f35-48a0-8293-e343f1c63e15,MAMTA PARK SOCIETY,"[72.876596, 21.216899]",Point
4365,7ec3d577-2f35-48a0-8293-e343f1c63e15,NATVAR NAGAR,"[72.894213, 21.229871]",Point
4366,7ec3d577-2f35-48a0-8293-e343f1c63e15,SAVJIKORAT BRIDGE,"[72.893592, 21.231064]",Point
4367,7ec3d577-2f35-48a0-8293-e343f1c63e15,LAJAMANI CHOWK,"[72.888794, 21.239215]",Point
4368,7ec3d577-2f35-48a0-8293-e343f1c63e15,RAJHANS TOWER,"[72.887827, 21.242183]",Point
4369,7ec3d577-2f35-48a0-8293-e343f1c63e15,APPLE HEIGHTS,"[72.874121, 21.23642]",Point
4370,7ec3d577-2f35-48a0-8293-e343f1c63e15,SUDAMA CHOWK,"[72.877632, 21.237546]",Point
4371,7ec3d577-2f35-48a0-8293-e343f1c63e15,MOTA VARACHHA FIRE STATION,"[72.880967, 21.238443]",Point
4372,7ec3d577-2f35-48a0-8293-e343f1c63e15,MOTA VARACHHA WARD OFFICE,"[72.882598, 21.239622]",Point
4373,7ec3d577-2f35-48a0-8293-e343f1c63e15,MOTA VARACHHA PRATHMIK SCHOOL,"[72.881617, 21.241256]",Point
4374,7ec3d577-2f35-48a0-8293-e343f1c63e15,MOTA VARACHHA LAKE,"[72.882813, 21.24342]",Point
4377,7ec3d577-2f35-48a0-8293-e343f1c63e15,SEWAGE PUMPING MOTA VARACHHA,"[72.887167, 21.244502]",Point
4378,7ec3d577-2f35-48a0-8293-e343f1c63e15,GAUSHALA FULPADA,"[72.850503, 21.222795]",Point
4384,7ec3d577-2f35-48a0-8293-e343f1c63e15,ANMOL PARK SOCIETY,"[72.901219, 21.234397]",Point
4385,7ec3d577-2f35-48a0-8293-e343f1c63e15,SANKALP RESIDENCY,"[72.905058, 21.237534]",Point
4389,7ec3d577-2f35-48a0-8293-e343f1c63e15,KAPODARA,"[72.875916, 21.219189]",Point
4390,7ec3d577-2f35-48a0-8293-e343f1c63e15,RACHANA CIRCLE,"[72.867307, 21.21268]",Point
4401,7ec3d577-2f35-48a0-8293-e343f1c63e15,RAJ EMPIRE GODADARA,"[72.872079, 21.174978]",Point
4402,7ec3d577-2f35-48a0-8293-e343f1c63e15,DHRUV PARK SOCIETY,"[72.876076, 21.174996]",Point
4403,7ec3d577-2f35-48a0-8293-e343f1c63e15,PRIYANKA METRO CITY,"[72.878962, 21.175006]",Point
4404,7ec3d577-2f35-48a0-8293-e343f1c63e15,SMC GARDEN GODADARA,"[72.880193, 21.172539]",Point
4405,7ec3d577-2f35-48a0-8293-e343f1c63e15,SHYAM SHRUSTI APARTMENT,"[72.882403, 21.171187]",Point
4423,7ec3d577-2f35-48a0-8293-e343f1c63e15,SHANTANU RESIDENCY GODADARA,"[72.871703, 21.171367]",Point
4424,7ec3d577-2f35-48a0-8293-e343f1c63e15,KHODIYAR RESIDENCY GODADARA,"[72.875111, 21.171828]",Point
4425,7ec3d577-2f35-48a0-8293-e343f1c63e15,RADHE SHYAM SOCIETY GODADARA,"[72.877411, 21.170753]",Point
4426,7ec3d577-2f35-48a0-8293-e343f1c63e15,SHAMALDHAM ROW HOUSE GODADARA,"[72.878203, 21.168444]",Point
4427,7ec3d577-2f35-48a0-8293-e343f1c63e15,SAI SHRUSTI RESIDENCY GODADARA,"[72.882177, 21.168679]",Point
4428,7ec3d577-2f35-48a0-8293-e343f1c63e15,MAN SAROVAR SOCIETY,"[72.883295, 21.167214]",Point
4429,7ec3d577-2f35-48a0-8293-e343f1c63e15,ARVIND NAGAR,"[72.883863, 21.163515]",Point
4430,7ec3d577-2f35-48a0-8293-e343f1c63e15,SHYAM DHAM SOCIETY GODADARA,"[72.881834, 21.160504]",Point
4432,7ec3d577-2f35-48a0-8293-e343f1c63e15,SAI DARSHAN SOCIETY GODADARA,"[72.876268, 21.161222]",Point
4433,7ec3d577-2f35-48a0-8293-e343f1c63e15,SAMRAT INDUSTRIES 1 GODADARA,"[72.873253, 21.161544]",Point
4434,7ec3d577-2f35-48a0-8293-e343f1c63e15,GODADARA GAM,"[72.874918, 21.166704]",Point
4435,7ec3d577-2f35-48a0-8293-e343f1c63e15,GODADARA SCHOOL,"[72.873138, 21.167451]",Point
4439,7ec3d577-2f35-48a0-8293-e343f1c63e15,SHIVALIK SQUARE,"[72.873202, 21.158654]",Point
4440,7ec3d577-2f35-48a0-8293-e343f1c63e15,GHARDI MATA MANDIR,"[72.873219, 21.155522]",Point
4441,7ec3d577-2f35-48a0-8293-e343f1c63e15,MARK POINT DINDOLI,"[72.872382, 21.1501]",Point
4442,7ec3d577-2f35-48a0-8293-e343f1c63e15,SHREENATH RESIDENCY,"[72.873279, 21.14592]",Point
4446,7ec3d577-2f35-48a0-8293-e343f1c63e15,DINDOLI GAM,"[72.8714, 21.1525]",Point
4447,7ec3d577-2f35-48a0-8293-e343f1c63e15,JITESH PARK SOCIETY,"[72.874146, 21.149789]",Point
4448,7ec3d577-2f35-48a0-8293-e343f1c63e15,MILLENIUM PARK,"[72.877039, 21.146779]",Point
4449,7ec3d577-2f35-48a0-8293-e343f1c63e15,VRUKSHLAXMI SOCIETY,"[72.882566, 21.142013]",Point
4450,7ec3d577-2f35-48a0-8293-e343f1c63e15,SUNRISE VIDYALAY DINDOLI,"[72.878728, 21.158775]",Point
4501,7ec3d577-2f35-48a0-8293-e343f1c63e15,BHESTAN RAILWAY STATION,"[72.861866, 21.122837]",Point
4504,7ec3d577-2f35-48a0-8293-e343f1c63e15,SHRI KAILAS MANAS SCHOOL,"[72.838819, 21.117872]",Point
4505,7ec3d577-2f35-48a0-8293-e343f1c63e15,JIAV GAAM,"[72.834646, 21.116989]",Point
4506,7ec3d577-2f35-48a0-8293-e343f1c63e15,BHESTAN JIAV ROAD,"[72.825488, 21.11493]",Point
4512,7ec3d577-2f35-48a0-8293-e343f1c63e15,PANDESARA,"[72.8276, 21.1474]",Point
4513,7ec3d577-2f35-48a0-8293-e343f1c63e15,PANDESARA INDUSTRIAL ESTATE,"[72.827531, 21.145005]",Point
4514,7ec3d577-2f35-48a0-8293-e343f1c63e15,BAMROLI KHADI,"[72.828083, 21.142547]",Point
4515,7ec3d577-2f35-48a0-8293-e343f1c63e15,JAY JALARAM INDUSTRIAL SOCIETY,"[72.827943, 21.140039]",Point
4516,7ec3d577-2f35-48a0-8293-e343f1c63e15,BAMROLI,"[72.8263, 21.1392]",Point
4517,7ec3d577-2f35-48a0-8293-e343f1c63e15,OM COMPLEX,"[72.827437, 21.135127]",Point
4518,7ec3d577-2f35-48a0-8293-e343f1c63e15,JAGDAMBA ESTATE,"[72.8279, 21.1322]",Point
4519,7ec3d577-2f35-48a0-8293-e343f1c63e15,UMIYA NAGAR INDUSTRIAL ESTATE,"[72.828135, 21.129895]",Point
4520,7ec3d577-2f35-48a0-8293-e343f1c63e15,VADOD GAM,"[72.83197, 21.127971]",Point
4521,7ec3d577-2f35-48a0-8293-e343f1c63e15,GANESHNAGAR,"[72.835996, 21.126971]",Point
4522,7ec3d577-2f35-48a0-8293-e343f1c63e15,G.N. PANDYA COLLEGE,"[72.840678, 21.126644]",Point
4523,7ec3d577-2f35-48a0-8293-e343f1c63e15,PRIYANKA TOWNSHIP,"[72.842332, 21.126247]",Point
4524,7ec3d577-2f35-48a0-8293-e343f1c63e15,PRIYANKA GREEN PARK SOCIETY,"[72.841929, 21.123502]",Point
4525,7ec3d577-2f35-48a0-8293-e343f1c63e15,PRIYANKA GOLD SOCIETY,"[72.8424, 21.1208]",Point
4526,7ec3d577-2f35-48a0-8293-e343f1c63e15,D.I.E.T.,"[72.8456, 21.1198]",Point
4527,7ec3d577-2f35-48a0-8293-e343f1c63e15,SWAPNA SRUSTI RESIDENCY,"[72.847477, 21.119414]",Point
4528,7ec3d577-2f35-48a0-8293-e343f1c63e15,RESHMA NAGAR,"[72.8482, 21.1165]",Point
4529,7ec3d577-2f35-48a0-8293-e343f1c63e15,UNN GAM,"[72.852204, 21.116621]",Point
4530,7ec3d577-2f35-48a0-8293-e343f1c63e15,MAULANA AZAD ENGLISH SCHOOL,"[72.8559, 21.1168]",Point
4531,7ec3d577-2f35-48a0-8293-e343f1c63e15,SOMESHWAR NAGAR 1,"[72.845971, 21.122466]",Point
4532,7ec3d577-2f35-48a0-8293-e343f1c63e15,BHAGIRATH APARTMENT,"[72.833896, 21.148651]",Point
4533,7ec3d577-2f35-48a0-8293-e343f1c63e15,KV HAGRENAD ROAD,"[72.834568, 21.144999]",Point
4534,7ec3d577-2f35-48a0-8293-e343f1c63e15,BHESTAN GARDEN,"[72.85241, 21.126071]",Point
4537,7ec3d577-2f35-48a0-8293-e343f1c63e15,UNN,"[72.8568, 21.12424]",Point
4538,7ec3d577-2f35-48a0-8293-e343f1c63e15,BHESTAN EWS HOUSING,"[72.87126, 21.128973]",Point
4539,7ec3d577-2f35-48a0-8293-e343f1c63e15,PANDESARA INDUSTRIES ESTATE,"[72.847995, 21.144149]",Point
4540,7ec3d577-2f35-48a0-8293-e343f1c63e15,ALFA WAY BRIDGE CHOKDI,"[72.845889, 21.143005]",Point
4541,7ec3d577-2f35-48a0-8293-e343f1c63e15,COLOURTEX,"[72.840026, 21.141538]",Point
4542,7ec3d577-2f35-48a0-8293-e343f1c63e15,VITRAG CHEMICAL,"[72.837411, 21.141539]",Point
4543,7ec3d577-2f35-48a0-8293-e343f1c63e15,G-TEX PRINTS,"[72.834411, 21.142485]",Point
4544,7ec3d577-2f35-48a0-8293-e343f1c63e15,BHAGYALAXMI PRINTS,"[72.834147, 21.13724]",Point
4545,7ec3d577-2f35-48a0-8293-e343f1c63e15,MAAKRUPA CHEMICAL INDUSTRIES GANESHNAGAR,"[72.834175, 21.133011]",Point
4546,7ec3d577-2f35-48a0-8293-e343f1c63e15,SMC COMMUNITY HALL PANDESARA,"[72.831684, 21.147765]",Point
4549,7ec3d577-2f35-48a0-8293-e343f1c63e15,BHESTAN CITY BUS DEPOT,"[72.853837, 21.126656]",Point
4601,7ec3d577-2f35-48a0-8293-e343f1c63e15,MANIBA PARTY PLOT VIP ROAD,"[72.786837, 21.142299]",Point
4547,7ec3d577-2f35-48a0-8293-e343f1c63e15,VADOD GAAM,"[72.833725, 21.130654]",Point
4548,7ec3d577-2f35-48a0-8293-e343f1c63e15,GANESH NAGAR PANDESARA,"[72.840854, 21.130427]",Point
4605,7ec3d577-2f35-48a0-8293-e343f1c63e15,JAGANNATHPURI TEMPLE,"[72.797097, 21.133191]",Point
4606,7ec3d577-2f35-48a0-8293-e343f1c63e15,GOVINDAJI SPORT COMPLEX,"[72.798781, 21.136273]",Point
4607,7ec3d577-2f35-48a0-8293-e343f1c63e15,AAKASH AVENUE,"[72.800068, 21.138406]",Point
4649,7ec3d577-2f35-48a0-8293-e343f1c63e15,ALTHAN WATER WORKS JUNCTION,"[72.805913, 21.146854]",Point
4650,7ec3d577-2f35-48a0-8293-e343f1c63e15,MEGNUS ALPINE ALTHAN CANAL ROAD,"[72.804069, 21.142763]",Point
4651,7ec3d577-2f35-48a0-8293-e343f1c63e15,ASHIRWAD ENCLAVE ALTHAN CANAL ROAD,"[72.802847, 21.140083]",Point
4652,7ec3d577-2f35-48a0-8293-e343f1c63e15,BHAGWAN MAHAVIR COLLEGE,"[72.794478, 21.13946]",Point
4653,7ec3d577-2f35-48a0-8293-e343f1c63e15,MAHILA I.T.I,"[72.795742, 21.130461]",Point
4654,7ec3d577-2f35-48a0-8293-e343f1c63e15,SARSANA GAM,"[72.79271, 21.124453]",Point
4656,7ec3d577-2f35-48a0-8293-e343f1c63e15,E.SPACE BHARTHANA VIP ROAD,"[72.794792, 21.143619]",Point
4657,7ec3d577-2f35-48a0-8293-e343f1c63e15,OFFIRA SHOPPING VIP ROAD,"[72.790598, 21.142923]",Point
4658,7ec3d577-2f35-48a0-8293-e343f1c63e15,CANAL JUNCTION VIP ROAD,"[72.782626, 21.141589]",Point
4659,7ec3d577-2f35-48a0-8293-e343f1c63e15,BALAJI FARM VIP ROAD,"[72.778601, 21.140891]",Point
4660,7ec3d577-2f35-48a0-8293-e343f1c63e15,RATNA JYOTI TOWER VIP ROAD,"[72.774669, 21.140209]",Point
4661,7ec3d577-2f35-48a0-8293-e343f1c63e15,SHRI SARJAN PALACE VIP ROAD,"[72.7696, 21.139336]",Point
4662,7ec3d577-2f35-48a0-8293-e343f1c63e15,VASTUGRAM VIP ROAD,"[72.766201, 21.138572]",Point
4663,7ec3d577-2f35-48a0-8293-e343f1c63e15,NANDINI FLAT VIP ROAD,"[72.76281, 21.137809]",Point
4664,7ec3d577-2f35-48a0-8293-e343f1c63e15,GAIL INDIA LTD VIP ROAD,"[72.758699, 21.136884]",Point
4671,7ec3d577-2f35-48a0-8293-e343f1c63e15,BHARTI MAIYA SCHOOL,"[72.771676, 21.155172]",Point
4672,7ec3d577-2f35-48a0-8293-e343f1c63e15,S.D PLANETS SCHOOL,"[72.771855, 21.152731]",Point
4673,7ec3d577-2f35-48a0-8293-e343f1c63e15,SNS SQUARE,"[72.768291, 21.148403]",Point
4674,7ec3d577-2f35-48a0-8293-e343f1c63e15,JOLLY RESIDENCY,"[72.768399, 21.146239]",Point
4675,7ec3d577-2f35-48a0-8293-e343f1c63e15,SOMESHWARA ENCLAVE VESU ABHVA ROAD,"[72.773266, 21.143403]",Point
4676,7ec3d577-2f35-48a0-8293-e343f1c63e15,RATNA JYOTI TOWER VESU ABHVA ROAD,"[72.77344, 21.141276]",Point
4677,7ec3d577-2f35-48a0-8293-e343f1c63e15,AGAM SHOPPING VESU ABHVA ROAD,"[72.773563, 21.135826]",Point
4678,7ec3d577-2f35-48a0-8293-e343f1c63e15,NALANDA SCHOOL VESU ABHVA ROAD,"[72.773101, 21.127891]",Point
4679,7ec3d577-2f35-48a0-8293-e343f1c63e15,VATSALYA BUNGALOWS,"[72.779139, 21.15273]",Point
4680,7ec3d577-2f35-48a0-8293-e343f1c63e15,SURAJ MANDAL JAIN TEMPLE,"[72.778508, 21.148862]",Point
4681,7ec3d577-2f35-48a0-8293-e343f1c63e15,SDJ SCHOOL VESU,"[72.779108, 21.14523]",Point
4682,7ec3d577-2f35-48a0-8293-e343f1c63e15,VESU GAAM,"[72.777551, 21.142237]",Point
4683,7ec3d577-2f35-48a0-8293-e343f1c63e15,SMC NIGHT FOOD BAZAAR,"[72.779607, 21.16338]",Point
4684,7ec3d577-2f35-48a0-8293-e343f1c63e15,BHAGYALAXMI SOCIETY,"[72.778523, 21.160057]",Point
4686,7ec3d577-2f35-48a0-8293-e343f1c63e15,PIPLOD MAIN ROAD,"[72.779237, 21.154322]",Point
4685,7ec3d577-2f35-48a0-8293-e343f1c63e15,SARASWATI NAGAR,"[72.778602, 21.157016]",Point
4705,7ec3d577-2f35-48a0-8293-e343f1c63e15,VARIYAV JAKATNAKA,"[72.796602, 21.254149]",Point
4706,7ec3d577-2f35-48a0-8293-e343f1c63e15,CJ PATEL COLLEGE,"[72.79883, 21.255231]",Point
4703,7ec3d577-2f35-48a0-8293-e343f1c63e15,PISAD PUMPING STATION,"[72.790128, 21.234025]",Point
4704,7ec3d577-2f35-48a0-8293-e343f1c63e15,ISKCON CIRCLE,"[72.789213, 21.236964]",Point
4707,7ec3d577-2f35-48a0-8293-e343f1c63e15,GWSSB VARIAV,"[72.808082, 21.256807]",Point
4709,7ec3d577-2f35-48a0-8293-e343f1c63e15,VARIAV GAAM,"[72.817796, 21.259901]",Point
4710,7ec3d577-2f35-48a0-8293-e343f1c63e15,LOTUS CRICKET ACADEMY,"[72.767493, 21.219067]",Point
4715,7ec3d577-2f35-48a0-8293-e343f1c63e15,RAJ HARMONY,"[72.77797, 21.221452]",Point
4716,7ec3d577-2f35-48a0-8293-e343f1c63e15,ANAND VILLA,"[72.774146, 21.220878]",Point
4717,7ec3d577-2f35-48a0-8293-e343f1c63e15,SOUTH GUJARAT MEDICAL COLLEGE,"[72.770295, 21.220117]",Point
4773,7ec3d577-2f35-48a0-8293-e343f1c63e15,SAITIRTH,"[72.774339, 21.207687]",Point
4774,7ec3d577-2f35-48a0-8293-e343f1c63e15,PALANPUR SHALA,"[72.772898, 21.206121]",Point
4775,7ec3d577-2f35-48a0-8293-e343f1c63e15,PALANPUR GAM,"[72.770231, 21.205203]",Point
4776,7ec3d577-2f35-48a0-8293-e343f1c63e15,PALANPUR GAM TALAV,"[72.767333, 21.204532]",Point
4786,7ec3d577-2f35-48a0-8293-e343f1c63e15,GALAXY CIRCLE,"[72.778736, 21.190166]",Point
4787,7ec3d577-2f35-48a0-8293-e343f1c63e15,GALAXY ENCLAVE,"[72.774949, 21.190046]",Point
4788,7ec3d577-2f35-48a0-8293-e343f1c63e15,NANDANVAN ROW HOUSE,"[72.787232, 21.242444]",Point
4789,7ec3d577-2f35-48a0-8293-e343f1c63e15,PATEL NAGAR SOCIETY,"[72.78585, 21.246089]",Point
4790,7ec3d577-2f35-48a0-8293-e343f1c63e15,VIVEKANAND COLLEGE,"[72.784978, 21.248605]",Point
4791,7ec3d577-2f35-48a0-8293-e343f1c63e15,ISCON MANDIR,"[72.790562, 21.240338]",Point
4792,7ec3d577-2f35-48a0-8293-e343f1c63e15,KURUKSHETRA/RAMMADHI,"[72.791464, 21.242464]",Point
4793,7ec3d577-2f35-48a0-8293-e343f1c63e15,ASHARAM BAPU ASHRAM,"[72.794158, 21.248898]",Point
4794,7ec3d577-2f35-48a0-8293-e343f1c63e15,VARIAV GAAM APPROACH,"[72.817535, 21.263417]",Point
4795,7ec3d577-2f35-48a0-8293-e343f1c63e15,NAVAPARA VARIAV,"[72.824198, 21.264939]",Point
4796,7ec3d577-2f35-48a0-8293-e343f1c63e15,RADHIKA POINT,"[72.830632, 21.260988]",Point
4797,7ec3d577-2f35-48a0-8293-e343f1c63e15,TADWADI CHHAPRABHATHA,"[72.833284, 21.257566]",Point
4798,7ec3d577-2f35-48a0-8293-e343f1c63e15,CHHANNU COLONY CHHAPRABHATHA,"[72.836732, 21.255341]",Point
4799,7ec3d577-2f35-48a0-8293-e343f1c63e15,PAL PATIYA,"[72.779646, 21.182103]",Point
4950,7ec3d577-2f35-48a0-8293-e343f1c63e15,GREEN CITY,"[72.770735, 21.189712]",Point
4953,7ec3d577-2f35-48a0-8293-e343f1c63e15,WEAL PARK INDUSTRIES,"[72.745347, 21.194434]",Point
4954,7ec3d577-2f35-48a0-8293-e343f1c63e15,ICCHAPOR GAAM FAATA,"[72.741223, 21.193641]",Point
4955,7ec3d577-2f35-48a0-8293-e343f1c63e15,PANCHVATI GARDEN ICCHAPOR,"[72.73896, 21.191824]",Point
4956,7ec3d577-2f35-48a0-8293-e343f1c63e15,ICCHAPOR LAKE,"[72.735833, 21.191109]",Point
4957,7ec3d577-2f35-48a0-8293-e343f1c63e15,HOTEL EXCELLENCY ICCHAPOR,"[72.731091, 21.19156]",Point
4958,7ec3d577-2f35-48a0-8293-e343f1c63e15,ICCHAPOR TOWN,"[72.72805, 21.191301]",Point
4990,7ec3d577-2f35-48a0-8293-e343f1c63e15,KARADVA GAM,"[72.873142, 21.142381]",Point
4992,7ec3d577-2f35-48a0-8293-e343f1c63e15,BHATHA GAAM,"[72.761889, 21.184327]",Point
4993,7ec3d577-2f35-48a0-8293-e343f1c63e15,GREEN CITY BHATHA APPROACH,"[72.767818, 21.18844]",Point
4994,7ec3d577-2f35-48a0-8293-e343f1c63e15,GREEN CITY BHATHA,"[72.765808, 21.188631]",Point
5002,7ec3d577-2f35-48a0-8293-e343f1c63e15,MADINA MASJID,"[72.815712, 21.21067]",Point
5003,7ec3d577-2f35-48a0-8293-e343f1c63e15,VAIBHAV CHAMBER,"[72.819631, 21.207889]",Point
5701,7ec3d577-2f35-48a0-8293-e343f1c63e15,SAHJANAND HILLS,"[72.767985, 21.206982]",Point
5702,7ec3d577-2f35-48a0-8293-e343f1c63e15,SUMAN JYOT EWS,"[72.771221, 21.207168]",Point
5703,7ec3d577-2f35-48a0-8293-e343f1c63e15,KAVI SHREE AMRUT GHAYAL SCHOOL VARIAV,"[72.820787, 21.260465]",Point
5704,7ec3d577-2f35-48a0-8293-e343f1c63e15,VASU PUJYA APARTMENT,"[72.779363, 21.231992]",Point
5705,7ec3d577-2f35-48a0-8293-e343f1c63e15,JANKI RESIDENCY,"[72.779685, 21.234626]",Point
5706,7ec3d577-2f35-48a0-8293-e343f1c63e15,VAISHNODEVI HEIGHTS,"[72.779199, 21.237094]",Point
5707,7ec3d577-2f35-48a0-8293-e343f1c63e15,SASHANK PARK SOCIETY,"[72.777657, 21.238326]",Point
5708,7ec3d577-2f35-48a0-8293-e343f1c63e15,VAISHNODEVI TOWNSHIP,"[72.775356, 21.240678]",Point
5709,7ec3d577-2f35-48a0-8293-e343f1c63e15,VAISHNODEVI SKY,"[72.773521, 21.241879]",Point
5710,7ec3d577-2f35-48a0-8293-e343f1c63e15,B R PARK,"[72.785275, 21.237563]",Point
5711,7ec3d577-2f35-48a0-8293-e343f1c63e15,ANKUR PARK SOCIETY,"[72.785522, 21.234932]",Point
5712,7ec3d577-2f35-48a0-8293-e343f1c63e15,JAHANGIRPURA HOUSING,"[72.786274, 21.232739]",Point
5713,7ec3d577-2f35-48a0-8293-e343f1c63e15,SMC LIBRARY JAHANGIRPURA,"[72.787961, 21.231137]",Point
5714,7ec3d577-2f35-48a0-8293-e343f1c63e15,SHREE DARSHAN SOCIETY,"[72.79018, 21.231262]",Point
5716,7ec3d577-2f35-48a0-8293-e343f1c63e15,SRIDHAR SOCIETY,"[72.786556, 21.23919]",Point
5717,7ec3d577-2f35-48a0-8293-e343f1c63e15,SWAYAM RESIDENCY,"[72.786001, 21.241233]",Point
5718,7ec3d577-2f35-48a0-8293-e343f1c63e15,SAI PUJAN RESIDENCY,"[72.784667, 21.242961]",Point
6001,7ec3d577-2f35-48a0-8293-e343f1c63e15,"RAGHUVIR ROW HOUSE, VALAK PATIYA BRTS","[72.920779, 21.246942]",Point
6002,7ec3d577-2f35-48a0-8293-e343f1c63e15,LASKANA GAM BRTS,"[72.92572, 21.250477]",Point
6003,7ec3d577-2f35-48a0-8293-e343f1c63e15,DGVCL LASKANA BRTS,"[72.930281, 21.252524]",Point
6004,7ec3d577-2f35-48a0-8293-e343f1c63e15,DIAMOND NAGAR BRTS,"[72.935209, 21.254724]",Point
6005,7ec3d577-2f35-48a0-8293-e343f1c63e15,DIAMOND VIDHYA SANKUL BRTS,"[72.941031, 21.257442]",Point
6006,7ec3d577-2f35-48a0-8293-e343f1c63e15,PASODARA GAM CHAR RASTA BRTS,"[72.946335, 21.261149]",Point
6007,7ec3d577-2f35-48a0-8293-e343f1c63e15,SHYAM NAGAR BRTS,"[72.949681, 21.263625]",Point
6009,7ec3d577-2f35-48a0-8293-e343f1c63e15,KAMREJ TERMINAL BRTS,"[72.956475, 21.268535]",Point
6010,7ec3d577-2f35-48a0-8293-e343f1c63e15,BHESTAN,"[72.855455, 21.125739]",Point
6012,7ec3d577-2f35-48a0-8293-e343f1c63e15,JILANI BRIDGE APPROACH KATARGAM,"[72.824579, 21.209175]",Point
6101,7ec3d577-2f35-48a0-8293-e343f1c63e15,AROGYA KENDRA,"[72.710055, 21.09186]",Point
6102,7ec3d577-2f35-48a0-8293-e343f1c63e15,MAHA LAKSHMI TEMPLE,"[72.705589, 21.097046]",Point
6103,7ec3d577-2f35-48a0-8293-e343f1c63e15,NANI BAJAR DUMAS,"[72.705145, 21.098623]",Point
6104,7ec3d577-2f35-48a0-8293-e343f1c63e15,MOTI BAJAR DUMAS,"[72.705314, 21.104876]",Point
6105,7ec3d577-2f35-48a0-8293-e343f1c63e15,KAADI FALIYA DUMAS,"[72.707038, 21.105616]",Point
6106,7ec3d577-2f35-48a0-8293-e343f1c63e15,PARSIWAD,"[72.71214, 21.106725]",Point
6107,7ec3d577-2f35-48a0-8293-e343f1c63e15,AGASHI MATA NU MANDIR,"[72.718038, 21.109597]",Point
6108,7ec3d577-2f35-48a0-8293-e343f1c63e15,DUMAS KUVADA,"[72.73321, 21.111569]",Point
6109,7ec3d577-2f35-48a0-8293-e343f1c63e15,BHIMPORE,"[72.719371, 21.084584]",Point
6110,7ec3d577-2f35-48a0-8293-e343f1c63e15,ABG SHIPYARD,"[72.741356, 21.133875]",Point
6111,7ec3d577-2f35-48a0-8293-e343f1c63e15,GAVIYAR GAM,"[72.736635, 21.131267]",Point
6112,7ec3d577-2f35-48a0-8293-e343f1c63e15,C.K.PITHAWALA ENG.COLLEGE,"[72.718972, 21.131292]",Point
6501,7ec3d577-2f35-48a0-8293-e343f1c63e15,DIPLI GAAM,"[72.820712, 21.115305]",Point
6502,7ec3d577-2f35-48a0-8293-e343f1c63e15,BUDIYA RWSS,"[72.827002, 21.110447]",Point
6503,7ec3d577-2f35-48a0-8293-e343f1c63e15,BUDIYA LAKE,"[72.821426, 21.102967]",Point
6504,7ec3d577-2f35-48a0-8293-e343f1c63e15,BUDIYA GAAM,"[72.819533, 21.101126]",Point
6655,7ec3d577-2f35-48a0-8293-e343f1c63e15,KHAJOD GAM,"[72.790012, 21.117303]",Point
6679,7ec3d577-2f35-48a0-8293-e343f1c63e15,ABHVA GAAM,"[72.770046, 21.116789]",Point
6688,7ec3d577-2f35-48a0-8293-e343f1c63e15,MAGDALLA PORT,"[72.744113, 21.132309]",Point
6689,7ec3d577-2f35-48a0-8293-e343f1c63e15,GAVIYAR VANTA,"[72.740623, 21.128364]",Point
6690,7ec3d577-2f35-48a0-8293-e343f1c63e15,SURAT AIRPORT,"[72.738732, 21.123688]",Point
6691,7ec3d577-2f35-48a0-8293-e343f1c63e15,VICTORIA PALM,"[72.728341, 21.099496]",Point
6692,7ec3d577-2f35-48a0-8293-e343f1c63e15,BHIMPORE FAATA,"[72.724087, 21.091145]",Point
6693,7ec3d577-2f35-48a0-8293-e343f1c63e15,KUNJ GALI,"[72.722516, 21.08776]",Point
6694,7ec3d577-2f35-48a0-8293-e343f1c63e15,DUMAS LANGAR,"[72.719351, 21.084347]",Point
6698,7ec3d577-2f35-48a0-8293-e343f1c63e15,SULTANABAD,"[72.716501, 21.08599]",Point
6699,7ec3d577-2f35-48a0-8293-e343f1c63e15,SULTANABAD AAMBAWADI,"[72.71591, 21.086326]",Point
6700,7ec3d577-2f35-48a0-8293-e343f1c63e15,BAPUJI NI WADI,"[72.710429, 21.091196]",Point
6801,7ec3d577-2f35-48a0-8293-e343f1c63e15,SAROLI GAAM,"[72.778814, 21.262815]",Point
6802,7ec3d577-2f35-48a0-8293-e343f1c63e15,TALAD,"[72.770725, 21.279969]",Point
6803,7ec3d577-2f35-48a0-8293-e343f1c63e15,BCA COLLEGE MASMA,"[72.766897, 21.288068]",Point
6804,7ec3d577-2f35-48a0-8293-e343f1c63e15,MASMA,"[72.763423, 21.295505]",Point
6805,7ec3d577-2f35-48a0-8293-e343f1c63e15,ISHANPOR,"[72.76043, 21.301979]",Point
6806,7ec3d577-2f35-48a0-8293-e343f1c63e15,CYANIDE CHEMICALS,"[72.757439, 21.308644]",Point
6807,7ec3d577-2f35-48a0-8293-e343f1c63e15,OLPAD GIDC,"[72.753771, 21.321633]",Point
6808,7ec3d577-2f35-48a0-8293-e343f1c63e15,SAYAN FAATA,"[72.753094, 21.32775]",Point
6809,7ec3d577-2f35-48a0-8293-e343f1c63e15,BILAL MASJID OLPAD,"[72.753093, 21.330581]",Point
6810,7ec3d577-2f35-48a0-8293-e343f1c63e15,KASBA MOHALLA OLPAD,"[72.751408, 21.333626]",Point
6811,7ec3d577-2f35-48a0-8293-e343f1c63e15,OLPAD BUS DEPOT,"[72.750348, 21.335914]",Point
6812,7ec3d577-2f35-48a0-8293-e343f1c63e15,LALWATALAAV OLPAD,"[72.752151, 21.336972]",Point
6817,7ec3d577-2f35-48a0-8293-e343f1c63e15,VASVARI LAKE,"[72.859156, 21.291994]",Point
6818,7ec3d577-2f35-48a0-8293-e343f1c63e15,VASVARI GAAM,"[72.861867, 21.29228]",Point
6819,7ec3d577-2f35-48a0-8293-e343f1c63e15,GOTHAN VASVAARI FAATA,"[72.865533, 21.293239]",Point
6820,7ec3d577-2f35-48a0-8293-e343f1c63e15,SANSKAR INDUSTRIAL ESTATE,"[72.867899, 21.307421]",Point
6821,7ec3d577-2f35-48a0-8293-e343f1c63e15,DELAAD TALAAV,"[72.869571, 21.312325]",Point
6822,7ec3d577-2f35-48a0-8293-e343f1c63e15,DELAAD INDUSTRIAL ESTATE,"[72.871465, 21.315732]",Point
6824,7ec3d577-2f35-48a0-8293-e343f1c63e15,MAHAVIR COMPLEX DELAAD PATIYA,"[72.875172, 21.319314]",Point
6823,7ec3d577-2f35-48a0-8293-e343f1c63e15,DELAAD PATIYA,"[72.871446, 21.319701]",Point
6825,7ec3d577-2f35-48a0-8293-e343f1c63e15,SAHYOG SOCIETY SAYAN,"[72.879039, 21.318619]",Point
6826,7ec3d577-2f35-48a0-8293-e343f1c63e15,D.R.G.D HIGH SCHOOL SAYAN,"[72.882355, 21.317874]",Point
6827,7ec3d577-2f35-48a0-8293-e343f1c63e15,SAYAN RAILWAY STATION,"[72.889057, 21.316645]",Point
6828,7ec3d577-2f35-48a0-8293-e343f1c63e15,S K PARK SOCIETY KATHODARA,"[72.939708, 21.227112]",Point
6871,7ec3d577-2f35-48a0-8293-e343f1c63e15,KHADSAD GAAM,"[72.932867, 21.227442]",Point
6872,7ec3d577-2f35-48a0-8293-e343f1c63e15,KATHODARA GAAM,"[72.943036, 21.227473]",Point
6896,7ec3d577-2f35-48a0-8293-e343f1c63e15,SACHIN GIDC JUNCTION,"[72.865069, 21.103475]",Point
6897,7ec3d577-2f35-48a0-8293-e343f1c63e15,SAI PETROLEUM,"[72.871431, 21.097912]",Point
6898,7ec3d577-2f35-48a0-8293-e343f1c63e15,PALSANA CHOKDI,"[72.872407, 21.097118]",Point
6899,7ec3d577-2f35-48a0-8293-e343f1c63e15,YOGESHWAR PARK SACHIN,"[72.875937, 21.093012]",Point
6900,7ec3d577-2f35-48a0-8293-e343f1c63e15,PARDI KANDE,"[72.878302, 21.090435]",Point
6901,7ec3d577-2f35-48a0-8293-e343f1c63e15,SACHIN PRIMARY SCHOOL,"[72.881695, 21.088061]",Point
6902,7ec3d577-2f35-48a0-8293-e343f1c63e15,SIDDHI VINAYAK RESIDENCY SACHIN,"[72.881659, 21.08842]",Point
6917,7ec3d577-2f35-48a0-8293-e343f1c63e15,SHIVDARSHAN COMPLEX SACHIN,"[72.883974, 21.081844]",Point
6945,7ec3d577-2f35-48a0-8293-e343f1c63e15,GODHPUR TOWNSHIP,"[72.929754, 21.229042]",Point
6946,7ec3d577-2f35-48a0-8293-e343f1c63e15,SHUKAN VALLEY RESIDENCY,"[72.944283, 21.228593]",Point
6947,7ec3d577-2f35-48a0-8293-e343f1c63e15,CHEHAR MATA TEMPLE,"[72.943845, 21.236985]",Point
6948,7ec3d577-2f35-48a0-8293-e343f1c63e15,PASODARA GAAM,"[72.94089, 21.236753]",Point
6949,7ec3d577-2f35-48a0-8293-e343f1c63e15,SHREE GYANJYOT VIDHYALAY,"[72.938701, 21.236575]",Point
6950,7ec3d577-2f35-48a0-8293-e343f1c63e15,VELANJA GAAM,"[72.911676, 21.306912]",Point
6951,7ec3d577-2f35-48a0-8293-e343f1c63e15,RANGOLI CHOKADI,"[72.916604, 21.303405]",Point
6952,7ec3d577-2f35-48a0-8293-e343f1c63e15,PRANAM RESIDENCY,"[72.914939, 21.301115]",Point
6953,7ec3d577-2f35-48a0-8293-e343f1c63e15,AVSHAR BUNGALOW,"[72.911911, 21.298543]",Point
6954,7ec3d577-2f35-48a0-8293-e343f1c63e15,MADHUVAN PUBLIC SCHOOL APPROACH,"[72.907245, 21.295994]",Point
6955,7ec3d577-2f35-48a0-8293-e343f1c63e15,SAURASHTRA GREEN CITY,"[72.904402, 21.294824]",Point
6956,7ec3d577-2f35-48a0-8293-e343f1c63e15,BAPA SITARAM PETROL PUMP,"[72.900807, 21.293778]",Point
6957,7ec3d577-2f35-48a0-8293-e343f1c63e15,SHIV PARK RESIDENCY,"[72.895966, 21.292226]",Point
6958,7ec3d577-2f35-48a0-8293-e343f1c63e15,UMRA NAKA,"[72.892978, 21.29134]",Point
6959,7ec3d577-2f35-48a0-8293-e343f1c63e15,KRIBHCO NAGAR,"[72.709966, 21.187021]",Point
6960,7ec3d577-2f35-48a0-8293-e343f1c63e15,RAILWAY COLONY,"[72.698063, 21.182026]",Point
6961,7ec3d577-2f35-48a0-8293-e343f1c63e15,NTPC,"[72.689199, 21.180471]",Point
6962,7ec3d577-2f35-48a0-8293-e343f1c63e15,GUJARAT GAS COMPANY LTD. MORA,"[72.680275, 21.179915]",Point
6963,7ec3d577-2f35-48a0-8293-e343f1c63e15,MORA CHAR RASTA,"[72.659226, 21.178537]",Point
6990,7ec3d577-2f35-48a0-8293-e343f1c63e15,ONGC ROAD JUNCTION,"[72.722742, 21.190507]",Point
6991,7ec3d577-2f35-48a0-8293-e343f1c63e15,MORA TEEN RASTA,"[72.669827, 21.179016]",Point
6993,7ec3d577-2f35-48a0-8293-e343f1c63e15,SAMARPAN HOSPITAL,"[72.884337, 21.079389]",Point
6995,7ec3d577-2f35-48a0-8293-e343f1c63e15,KANAKPUR PRIMARY SCHOOL,"[72.879018, 21.077162]",Point
6994,7ec3d577-2f35-48a0-8293-e343f1c63e15,SARASWATI HINDI VIDYA MANDIR,"[72.882374, 21.077525]",Point
6996,7ec3d577-2f35-48a0-8293-e343f1c63e15,BAPS TEMPLE KANAKPUR,"[72.878894, 21.074264]",Point
7800,7ec3d577-2f35-48a0-8293-e343f1c63e15,KAVI KALAPI GARDEN,"[72.795316, 21.190166]",Point
7801,7ec3d577-2f35-48a0-8293-e343f1c63e15,NANDGHAR ANGANVADI OLPAD,"[72.746914, 21.336048]",Point
7802,7ec3d577-2f35-48a0-8293-e343f1c63e15,OLPAD COURT,"[72.74327, 21.335584]",Point
7803,7ec3d577-2f35-48a0-8293-e343f1c63e15,OLPAD COLLEGE,"[72.738964, 21.335095]",Point
7804,7ec3d577-2f35-48a0-8293-e343f1c63e15,ROYAL SQUARE,"[72.864047, 21.23304]",Point
7805,7ec3d577-2f35-48a0-8293-e343f1c63e15,MAHARAJA KRUSHNAKUMAR SCHOOL,"[72.863011, 21.236708]",Point
7806,7ec3d577-2f35-48a0-8293-e343f1c63e15,SLOK RESIDENCY,"[72.861637, 21.238062]",Point
7807,7ec3d577-2f35-48a0-8293-e343f1c63e15,OPERA CITY,"[72.860324, 21.238952]",Point
7808,7ec3d577-2f35-48a0-8293-e343f1c63e15,SANTOSA HEIGHTS,"[72.8582, 21.237012]",Point
7809,7ec3d577-2f35-48a0-8293-e343f1c63e15,DGVCL MOTA VARACHHA,"[72.855673, 21.23317]",Point
7810,7ec3d577-2f35-48a0-8293-e343f1c63e15,UTRAN RAILWAY STATION,"[72.853939, 21.232961]",Point
7817,7ec3d577-2f35-48a0-8293-e343f1c63e15,KOSAD BHARTHANA  ROAD,"[72.867091, 21.25731]",Point
7818,7ec3d577-2f35-48a0-8293-e343f1c63e15,BHARTHANA GAAM,"[72.872133, 21.264581]",Point
7819,7ec3d577-2f35-48a0-8293-e343f1c63e15,NOORANI PARK SOCIETY,"[72.857094, 21.112813]",Point
7820,7ec3d577-2f35-48a0-8293-e343f1c63e15,NOORANI MASJID,"[72.855188, 21.11217]",Point
7821,7ec3d577-2f35-48a0-8293-e343f1c63e15,JILANI NAGAR,"[72.853467, 21.108592]",Point
7822,7ec3d577-2f35-48a0-8293-e343f1c63e15,SANTRO BAKERY,"[72.851011, 21.106333]",Point
7823,7ec3d577-2f35-48a0-8293-e343f1c63e15,COLOURTEX INDUSTRIES,"[72.847299, 21.104]",Point
7824,7ec3d577-2f35-48a0-8293-e343f1c63e15,GABHENI ROAD,"[72.840851, 21.098463]",Point
7825,7ec3d577-2f35-48a0-8293-e343f1c63e15,GABHENI GAAM,"[72.828711, 21.086595]",Point
7826,7ec3d577-2f35-48a0-8293-e343f1c63e15,AMBEDKAR TRUST,"[72.803166, 21.198558]",Point
7827,7ec3d577-2f35-48a0-8293-e343f1c63e15,AMIDHARA WADI,"[72.801054, 21.198481]",Point
7828,7ec3d577-2f35-48a0-8293-e343f1c63e15,AJRAMAR CHOWK,"[72.797462, 21.199634]",Point
7829,7ec3d577-2f35-48a0-8293-e343f1c63e15,SANGEET SARITA,"[72.795186, 21.199001]",Point
7830,7ec3d577-2f35-48a0-8293-e343f1c63e15,NILKAMAL SOCIETY,"[72.794663, 21.200904]",Point
7831,7ec3d577-2f35-48a0-8293-e343f1c63e15,PRIME ARCADE,"[72.794129, 21.202644]",Point
7832,7ec3d577-2f35-48a0-8293-e343f1c63e15,GANESHKRUPA SOCIETY,"[72.793485, 21.206818]",Point
7833,7ec3d577-2f35-48a0-8293-e343f1c63e15,NEW ERA SCHOOL,"[72.791595, 21.21532]",Point
7834,7ec3d577-2f35-48a0-8293-e343f1c63e15,PIPARDIWALA SCHOOL,"[72.793642, 21.216644]",Point
7835,7ec3d577-2f35-48a0-8293-e343f1c63e15,RANDER GAAM,"[72.795963, 21.218675]",Point
7836,7ec3d577-2f35-48a0-8293-e343f1c63e15,RANDER ISLAM GYMKHANA,"[72.793595, 21.219014]",Point
7837,7ec3d577-2f35-48a0-8293-e343f1c63e15,VRUDHASHRAM BHATHA,"[72.754282, 21.191353]",Point
7850,7ec3d577-2f35-48a0-8293-e343f1c63e15,BHESAN GAAM LAKE,"[72.757501, 21.215846]",Point
7851,7ec3d577-2f35-48a0-8293-e343f1c63e15,BHESAN GAAM,"[72.754277, 21.215558]",Point
7901,7ec3d577-2f35-48a0-8293-e343f1c63e15,SACHIN RAILWAY STATION,"[72.874206, 21.078932]",Point
7902,7ec3d577-2f35-48a0-8293-e343f1c63e15,KIRAN RESIDENCY,"[72.889034, 21.290501]",Point
7903,7ec3d577-2f35-48a0-8293-e343f1c63e15,GOTHAN BRIDGE,"[72.880056, 21.288433]",Point
7904,7ec3d577-2f35-48a0-8293-e343f1c63e15,KAKRAPAR CANAL ROAD,"[72.881399, 21.28098]",Point
7905,7ec3d577-2f35-48a0-8293-e343f1c63e15,RAMVATIKA SOCIETY,"[72.908634, 21.31169]",Point
2037,7ec3d577-2f35-48a0-8293-e343f1c63e15,SAMRAT VIDHYALAYA BRTS,"[72.855661, 21.186204]",Point
2038,7ec3d577-2f35-48a0-8293-e343f1c63e15,BHATHENA JUNCTION BRTS,"[72.842196, 21.181818]",Point
2039,7ec3d577-2f35-48a0-8293-e343f1c63e15,KHARWARNAGAR CREEK BRTS,"[72.838806, 21.180376]",Point
2040,7ec3d577-2f35-48a0-8293-e343f1c63e15,UDHANA DARWAJA BRTS,"[72.831382, 21.182516]",Point
2041,7ec3d577-2f35-48a0-8293-e343f1c63e15,KHARWARNAGAR BRTS,"[72.834178, 21.177901]",Point
2042,7ec3d577-2f35-48a0-8293-e343f1c63e15,"PANDIT DINDAYAL UPADHYAY BHAVAN, SATYANAGAR BRTS","[72.837398, 21.174623]",Point
2043,7ec3d577-2f35-48a0-8293-e343f1c63e15,UDHANA TEEN RASTA BRTS,"[72.839797, 21.170976]",Point
2044,7ec3d577-2f35-48a0-8293-e343f1c63e15,UDHANA GSRTC BRTS,"[72.840785, 21.165639]",Point
2045,7ec3d577-2f35-48a0-8293-e343f1c63e15,UDHANA ACADEMY COLLEGE BRTS,"[72.842432, 21.160311]",Point
2046,7ec3d577-2f35-48a0-8293-e343f1c63e15,LAXMI NARAYAN TEMPLE BRTS,"[72.843805, 21.157056]",Point
2047,7ec3d577-2f35-48a0-8293-e343f1c63e15,DAKSHESHWAR MAHADEV BRTS,"[72.845467, 21.153008]",Point
2048,7ec3d577-2f35-48a0-8293-e343f1c63e15,KHATODARA GIDC BRTS,"[72.82997, 21.176472]",Point
2049,7ec3d577-2f35-48a0-8293-e343f1c63e15,UNIQUE HOSPITAL JUNCTION BRTS,"[72.825994, 21.174755]",Point
2050,7ec3d577-2f35-48a0-8293-e343f1c63e15,"PRAJAPITA BRAHMAKUMARI MARG / CIVIL ROAD, MAJURAT FIRE STATION BRTS","[72.820473, 21.1722]",Point
2051,7ec3d577-2f35-48a0-8293-e343f1c63e15,RUPALI JUNCTION BRTS,"[72.816412, 21.170972]",Point
2052,7ec3d577-2f35-48a0-8293-e343f1c63e15,JAMNA NAGAR JUNCTION BRTS,"[72.810914, 21.169579]",Point
2053,7ec3d577-2f35-48a0-8293-e343f1c63e15,ISHWAR FARM JUNCTION BRTS,"[72.806345, 21.167955]",Point
2054,7ec3d577-2f35-48a0-8293-e343f1c63e15,PANAS GAM JUNCTION BRTS,"[72.800288, 21.165169]",Point
2055,7ec3d577-2f35-48a0-8293-e343f1c63e15,ANUVRAT DWAR JUNCTION (EAST) BRTS,"[72.797689, 21.162522]",Point
2056,7ec3d577-2f35-48a0-8293-e343f1c63e15,ANUVRAT DWAR JUNCTION (WEST) BRTS,"[72.794731, 21.159594]",Point
2057,7ec3d577-2f35-48a0-8293-e343f1c63e15,CHINAGATE BRTS,"[72.797139, 21.157933]",Point
2058,7ec3d577-2f35-48a0-8293-e343f1c63e15,BHARTHANA BRTS,"[72.797525, 21.152835]",Point
2059,7ec3d577-2f35-48a0-8293-e343f1c63e15,ALTHAN BHARTHANA BRTS,"[72.79822, 21.148181]",Point
2060,7ec3d577-2f35-48a0-8293-e343f1c63e15,SHYAM MANDIR BRTS,"[72.800105, 21.14459]",Point
2061,7ec3d577-2f35-48a0-8293-e343f1c63e15,ALTHAN CANAL BRTS,"[72.806217, 21.146307]",Point
2062,7ec3d577-2f35-48a0-8293-e343f1c63e15,ALTHAN KHADI BRTS,"[72.813234, 21.147938]",Point
2063,7ec3d577-2f35-48a0-8293-e343f1c63e15,PANCHMUKHI HANUMAN MANDIR BRTS,"[72.818151, 21.149008]",Point
2064,7ec3d577-2f35-48a0-8293-e343f1c63e15,KAILASH NAGAR BRTS,"[72.823028, 21.149517]",Point
2065,7ec3d577-2f35-48a0-8293-e343f1c63e15,PATRAKAR COLONY BRTS,"[72.828092, 21.150073]",Point
2066,7ec3d577-2f35-48a0-8293-e343f1c63e15,CHIKUWADI BRTS,"[72.837255, 21.151202]",Point
2067,7ec3d577-2f35-48a0-8293-e343f1c63e15,TULSIDHAM BRTS,"[72.842169, 21.151691]",Point
2068,7ec3d577-2f35-48a0-8293-e343f1c63e15,DINDOLI VARIGRUH BRTS,"[72.864633, 21.151162]",Point
2069,7ec3d577-2f35-48a0-8293-e343f1c63e15,DINDOLI KHARWASA ROAD BRTS,"[72.86877, 21.153692]",Point
2070,7ec3d577-2f35-48a0-8293-e343f1c63e15,"MAHARANA PRATAP BRIDGE / SAI BABA TEMPLE, DINDOLI BRTS","[72.870521, 21.156946]",Point
2071,7ec3d577-2f35-48a0-8293-e343f1c63e15,MANGAL PANDEY HALL BRTS,"[72.871891, 21.16543]",Point
2072,7ec3d577-2f35-48a0-8293-e343f1c63e15,AASPAS DADA TEMPLE BRTS,"[72.871642, 21.168519]",Point
2073,7ec3d577-2f35-48a0-8293-e343f1c63e15,JAI JOGANI MATA CHOWK BRTS,"[72.871358, 21.171922]",Point
2074,7ec3d577-2f35-48a0-8293-e343f1c63e15,MAHARANA PRATAP CHOWK / DEVADH GAM BRTS,"[72.871054, 21.175805]",Point
2075,7ec3d577-2f35-48a0-8293-e343f1c63e15,PARVAT GAM BRTS,"[72.871346, 21.181745]",Point
2076,7ec3d577-2f35-48a0-8293-e343f1c63e15,MAGOB PARVAT KHADI BRIDGE BRTS,"[72.871047, 21.18556]",Point
2077,7ec3d577-2f35-48a0-8293-e343f1c63e15,SMIMER HOSPITAL BRT,"[72.847575, 21.194254]",Point
2078,7ec3d577-2f35-48a0-8293-e343f1c63e15,APMC SARDAR MARKET BRTS,"[72.854112, 21.192967]",Point
2079,7ec3d577-2f35-48a0-8293-e343f1c63e15,AAI MATA CHOWK BRTS,"[72.857517, 21.191936]",Point
2080,7ec3d577-2f35-48a0-8293-e343f1c63e15,SHREE SANT KHETESHWAR CIRCLE / PARVAT PATIYA BRTS,"[72.861729, 21.191149]",Point
2081,7ec3d577-2f35-48a0-8293-e343f1c63e15,MAGOB GAM BRT,"[72.868282, 21.19016]",Point
2082,7ec3d577-2f35-48a0-8293-e343f1c63e15,"S.M.C. VARACHHA HEALTH CENTRE, PODAR ARCADE BRTS","[72.843427, 21.207472]",Point
1145,7ec3d577-2f35-48a0-8293-e343f1c63e15,RUWAALA TEKRA,"[72.830637, 21.198718]",Point
1146,7ec3d577-2f35-48a0-8293-e343f1c63e15,PIRCHHADI,"[72.833591, 21.20019]",Point
1147,7ec3d577-2f35-48a0-8293-e343f1c63e15,GALEMANDIR CHOWK,"[72.83591, 21.201117]",Point
1148,7ec3d577-2f35-48a0-8293-e343f1c63e15,BALAJI MANDIR,"[72.838348, 21.202612]",Point
1149,7ec3d577-2f35-48a0-8293-e343f1c63e15,VIJAY VALLABH CHOWK,"[72.819807, 21.184366]",Point
1150,7ec3d577-2f35-48a0-8293-e343f1c63e15,UDHANA DARWAJA,"[72.830116, 21.183993]",Point
1151,7ec3d577-2f35-48a0-8293-e343f1c63e15,BHAGAL CHAR RASTA,"[72.829739, 21.197861]",Point
1152,7ec3d577-2f35-48a0-8293-e343f1c63e15,LAL DARWAJA,"[72.835741, 21.206506]",Point
20,7ec3d577-2f35-48a0-8293-e343f1c63e15,CHOWK TERMINAL,"[72.818232, 21.194566]",Point
2001,7ec3d577-2f35-48a0-8293-e343f1c63e15,PAL R.T.O. BRTS,"[72.78094, 21.182332]",Point
2002,7ec3d577-2f35-48a0-8293-e343f1c63e15,SANJEEV KUMAR AUDITORIUM BRTS,"[72.786039, 21.183125]",Point
2003,7ec3d577-2f35-48a0-8293-e343f1c63e15,ADAJAN GAM BRTS,"[72.795757, 21.189049]",Point
2004,7ec3d577-2f35-48a0-8293-e343f1c63e15,ANAND MAHAL ROAD BRTS,"[72.79954, 21.192364]",Point
2005,7ec3d577-2f35-48a0-8293-e343f1c63e15,SHANKHESHWAR CHOWK BRTS,"[72.805964, 21.198946]",Point
